,City,Lat,Lng,Max Temp,Humidity,Cloudiness,Wind Speed,Country,Date
0,Lahaina,20.8783,-156.6825,66.2,100,90,21.85,US,1616348960
1,Holme,56.1138,10.1725,42.8,52,40,11.5,DK,1616348961
2,Pevek,69.7008,170.3133,-27.89,95,34,5.14,RU,1616348961
3,Nikolskoye,59.7035,30.7861,33.8,80,90,20.13,RU,1616348961
4,Mataura,-46.1927,168.8643,53.01,95,100,4.0,NZ,1616348962
5,Ushuaia,-54.8,-68.3,51.8,71,40,20.71,AR,1616348962
6,Moose Factory,51.2585,-80.6094,53.6,37,1,18.41,CA,1616348962
7,Albany,42.6001,-73.9662,61.0,16,1,1.99,US,1616348963
8,The Valley,18.217,-63.0578,84.2,57,20,12.66,AI,1616348825
9,Rikitea,-23.1203,-134.9692,79.86,74,10,9.48,PF,1616348947
10,Karratha,-20.7377,116.8463,79.3,53,0,5.86,AU,1616348963
11,Camacha,33.0833,-16.3333,60.8,55,75,8.05,PT,1616348963
12,Vaini,-21.2,-175.2,75.2,94,40,3.44,TO,1616348964
13,Cape Town,-33.9258,18.4232,70.0,56,0,24.16,ZA,1616348667
14,Mizdah,31.4451,12.9801,63.66,36,1,9.73,LY,1616348964
15,Punta Arenas,-53.15,-70.9167,59.0,51,75,12.66,CL,1616348920
16,Inhambane,-23.865,35.3833,76.53,84,22,7.49,MZ,1616348965
17,Arraial do Cabo,-22.9661,-42.0278,84.2,70,20,21.85,BR,1616348965
18,Praia,14.9215,-23.5087,78.8,44,0,19.57,CV,1616348703
19,Jamestown,42.097,-79.2353,61.0,21,1,7.25,US,1616348901
20,Cayenne,4.9333,-52.3333,84.2,70,20,10.36,GF,1616348938
21,Atuona,-9.8,-139.0333,80.35,77,9,14.7,PF,1616348966
22,Natal,-5.795,-35.2094,87.8,58,40,12.66,BR,1616348966
23,Busselton,-33.65,115.3333,64.99,93,79,1.01,AU,1616348966
24,Lebu,-37.6167,-73.65,63.9,60,0,6.64,CL,1616348967
25,Gwadar,25.1216,62.3254,76.26,72,0,14.9,PK,1616348967
26,East London,-33.0153,27.9116,64.4,68,0,14.97,ZA,1616348846
27,São Filipe,14.8961,-24.4956,72.25,66,75,10.74,CV,1616348967
28,Guerrero Negro,27.9769,-114.0611,63.77,56,98,19.42,MX,1616348968
29,Talaya,61.3833,152.75,-5.75,77,20,6.06,RU,1616348968
30,Saint Paul Harbor,57.79,-152.4072,30.2,86,90,4.61,US,1616348968
31,Lakhdenpokh'ya,61.5198,30.1992,32.0,96,100,11.81,RU,1616348969
32,Qaanaaq,77.484,-69.3632,-6.95,97,100,2.33,GL,1616348968
33,Rocha,-34.4833,-54.3333,71.53,70,42,13.51,UY,1616348969
34,Bredasdorp,-34.5322,20.0403,64.4,63,18,8.05,ZA,1616348969
35,Provideniya,64.3833,-173.3,3.97,80,100,1.88,RU,1616348957
36,Genhe,50.7833,121.5167,9.68,95,40,2.82,CN,1616348970
37,Kaitangata,-46.2817,169.8464,55.0,85,94,3.0,NZ,1616348970
38,Alvinópolis,-20.1067,-43.0489,79.41,65,38,4.12,BR,1616348971
39,Lüderitz,-26.6481,15.1594,69.73,62,0,18.63,NA,1616348971
40,Hilo,19.7297,-155.09,68.0,83,90,5.75,US,1616348971
41,Sragen,-7.4264,111.0222,75.88,92,97,6.24,ID,1616348971
42,Kiunga,-6.1219,141.2906,74.07,98,94,1.81,PG,1616348972
43,Praia da Vitória,38.7333,-27.0667,61.0,77,90,5.21,PT,1616348972
44,Tuatapere,-46.1333,167.6833,53.01,95,93,4.0,NZ,1616348973
45,Havre-St-Pierre,50.2334,-63.5986,33.8,80,20,10.36,CA,1616348973
46,Yenagoa,4.9247,6.2642,81.32,82,41,5.32,NG,1616348973
47,Kismayo,-0.3582,42.5454,79.88,78,50,10.98,SO,1616348973
48,New Norfolk,-42.7826,147.0587,59.0,69,9,2.1,AU,1616348974
49,Udachny,66.4167,112.4,-33.59,99,23,5.44,RU,1616348974
50,Ponta do Sol,32.6667,-17.1,62.6,51,40,13.8,PT,1616348958
51,Kirakira,-10.4544,161.9205,78.17,84,100,5.37,SB,1616348974
52,Tiksi,71.6872,128.8694,-15.65,99,100,11.45,RU,1616348959
53,Upernavik,72.7868,-56.1549,-9.36,91,100,4.63,GL,1616348975
54,Puerto Escondido,15.85,-97.0667,84.2,79,1,9.22,MX,1616348975
55,Hamilton,39.1834,-84.5333,64.0,25,1,3.44,US,1616348938
56,Lompoc,34.6391,-120.4579,57.0,50,1,13.8,US,1616348976
57,Garissa,-0.4536,39.6401,92.88,34,79,15.41,KE,1616348976
58,Kapaa,22.0752,-159.319,71.6,68,20,19.57,US,1616348976
59,Ibrā’,22.6906,58.5334,71.4,22,3,2.59,OM,1616348976
60,Oistins,13.0667,-59.5333,84.2,48,20,19.57,BB,1616348808
61,Markova,48.6758,24.4138,33.8,51,0,2.24,UA,1616348977
62,Chongwe,-15.3292,28.682,66.49,97,32,4.29,ZM,1616348977
63,Muisne,0.6,-80.0333,81.37,74,89,7.74,EC,1616348978
64,Aktash,50.3,87.7333,16.3,72,100,2.82,RU,1616348978
65,Tornio,65.8481,24.1466,28.4,43,0,14.97,FI,1616348978
66,Manggar,-2.8833,108.2667,79.88,85,86,6.44,ID,1616348979
67,Alofi,-19.0595,-169.9187,75.2,100,100,4.61,NU,1616348979
68,Pangnirtung,66.1451,-65.7125,-14.8,70,40,3.2,CA,1616348979
69,Aswān,24.0934,32.907,89.83,11,0,11.36,EG,1616348979
70,Sri Aman,1.2376,111.4621,75.2,100,100,1.39,MY,1616348980
71,Mana,5.6592,-53.7767,81.14,80,33,9.75,GF,1616348980
72,Avarua,-21.2078,-159.775,77.0,94,40,1.14,CK,1616348980
73,Ayní,39.3941,68.5377,34.14,72,44,6.55,TJ,1616348981
74,Kenai,60.5544,-151.2583,-2.2,78,1,3.44,US,1616348981
75,Thompson,55.7435,-97.8558,50.0,32,20,4.61,CA,1616348958
76,Marsaxlokk,35.8419,14.5431,55.99,76,20,20.71,MT,1616348982
77,Ust-Tsilma,65.441,52.1498,18.59,92,99,7.54,RU,1616348982
78,Beloha,-25.1667,45.05,77.41,74,40,7.23,MG,1616348839
79,Jōetsu,37.1483,138.2364,44.01,86,99,1.01,JP,1616348982
80,Visnes,59.3556,5.2242,41.0,81,75,4.61,NO,1616348983
81,Sesheke,-17.4759,24.2968,74.55,61,61,3.74,ZM,1616348983
82,Bluff,-46.6,168.3333,53.01,95,92,4.0,NZ,1616348965
83,Boende,-0.2167,20.8667,69.64,97,100,2.37,CD,1616348983
84,San Cristobal,7.7669,-72.225,84.2,61,20,11.5,VE,1616348948
85,Tinskoy,56.1525,96.9161,31.23,84,99,8.57,RU,1616348984
86,Wad Medani,14.4012,33.5199,91.42,11,2,10.98,SD,1616348984
87,Katsuura,35.1333,140.3,62.01,74,100,1.99,JP,1616348833
88,Bethel,41.3712,-73.414,61.0,18,1,1.95,US,1616348985
89,Bambanglipuro,-7.95,110.2833,77.94,85,98,3.85,ID,1616348985
90,Codrington,-38.2667,141.9667,64.06,87,73,11.27,AU,1616348985
91,Port Alfred,-33.5906,26.891,65.59,70,92,12.21,ZA,1616348986
92,Hermanus,-34.4187,19.2345,64.0,75,0,1.01,ZA,1616348986
93,Rørvik,64.8621,11.2373,35.6,93,75,6.91,NO,1616348986
94,Senneterre,48.3835,-77.2328,51.8,24,1,11.5,CA,1616348987
95,George Town,5.4112,100.3354,86.0,78,20,3.44,MY,1616348977
96,Saskylakh,71.9167,114.0833,-29.0,99,92,2.73,RU,1616348987
97,Vila do Maio,15.1333,-23.2167,78.8,44,0,19.57,CV,1616348987
98,Puerto Ayora,-0.7393,-90.3518,86.0,66,20,5.75,EC,1616348750
99,Norman Wells,65.282,-126.8329,-18.4,76,20,3.44,CA,1616348988
100,Bathsheba,13.2167,-59.5167,84.2,48,20,19.57,BB,1616348988
101,Mandalgovi,45.7625,106.2708,26.37,32,0,12.95,MN,1616348989
102,Manokwari,-0.8667,134.0833,79.12,74,94,3.51,ID,1616348989
103,Barrow,71.2906,-156.7887,-14.8,70,20,12.66,US,1616348989
104,Roald,62.5833,6.1333,39.2,81,75,19.57,NO,1616348990
105,Barranca,-10.75,-77.7667,77.32,64,17,9.42,PE,1616348990
106,Mayo,38.8876,-76.5119,60.01,50,1,5.75,US,1616348802
107,Port Hedland,-20.3167,118.5667,75.2,69,0,3.44,AU,1616348990
108,Port Lincoln,-34.7333,135.8667,67.93,75,3,8.7,AU,1616348991
109,Alyangula,-13.8483,136.4192,81.63,81,100,9.8,AU,1616348991
110,Van,38.4924,43.3831,42.8,65,75,3.44,TR,1616348986
111,Kouroussa,10.65,-9.8833,93.09,33,68,4.23,GN,1616348991
112,Dubbo,-32.25,148.6167,64.4,94,90,11.5,AU,1616348844
113,Tecozautla,20.5333,-99.6333,66.2,42,1,4.61,MX,1616348992
114,Brae,60.3964,-1.353,44.6,87,75,19.57,GB,1616348992
115,Tuktoyaktuk,69.4541,-133.0374,-20.2,76,40,8.05,CA,1616348992
116,Dikson,73.5069,80.5464,-12.06,62,81,4.68,RU,1616348993
117,Ribeira Grande,38.5167,-28.7,62.6,77,75,13.8,PT,1616348981
118,Yellowknife,62.456,-114.3525,-0.99,59,20,16.11,CA,1616348993
119,Stepnyak,52.8339,70.7803,23.23,92,100,8.75,KZ,1616348993
120,Torbay,47.6666,-52.7314,36.0,59,20,18.41,CA,1616348994
121,Souillac,-20.5167,57.5167,78.8,89,75,12.66,MU,1616348994
122,Ustka,54.5805,16.8619,36.46,74,4,7.18,PL,1616348994
123,Chunskiy,56.0815,99.6342,30.83,92,100,5.08,RU,1616348995
124,Mehamn,71.0357,27.8492,26.6,86,90,26.46,NO,1616348995
125,Castro,-24.7911,-50.0119,76.14,82,82,5.12,BR,1616348995
126,Kerema,-7.9631,145.7785,78.19,81,100,5.21,PG,1616348996
127,Saint-Philippe,-21.3585,55.7679,78.8,83,90,18.41,RE,1616348996
128,Salair,54.2312,85.7972,31.93,91,100,13.73,RU,1616348996
129,Haines Junction,60.7522,-137.5108,10.4,61,100,6.91,CA,1616348997
130,San Rafael,-34.6177,-68.3301,73.8,26,0,14.34,AR,1616348997
131,Kayes,14.0,-11.0,102.81,11,62,11.72,ML,1616348997
132,Aksay,47.26,39.87,35.01,93,20,4.47,RU,1616348998
133,Fairbanks,64.8378,-147.7164,-4.0,59,1,6.91,US,1616348998
134,Shirvan,39.9509,48.8994,49.08,73,66,10.25,AZ,1616348998
135,Taoudenni,22.6783,-3.9836,83.1,10,1,12.53,ML,1616348999
136,Son La,21.3167,103.9,58.89,80,71,4.41,VN,1616348999
137,Fare,-16.7,-151.0167,83.01,72,60,11.23,PF,1616348999
138,Dinguiraye,11.3,-10.7167,96.64,19,67,2.75,GN,1616349000
139,Avera,33.194,-82.5271,63.0,76,75,6.91,US,1616349000
140,Mahébourg,-20.4081,57.7,78.8,89,75,12.66,MU,1616348986
141,Hobart,-42.8794,147.3294,60.8,77,75,4.61,AU,1616349000
142,Nuuk,64.1835,-51.7216,23.0,93,90,20.71,GL,1616349001
143,Galveston,29.3669,-94.9669,66.0,63,90,9.22,US,1616349001
144,Katherine,-14.4667,132.2667,77.0,94,85,6.91,AU,1616349002
145,Dzilam González,21.2833,-88.9333,81.23,51,12,8.3,MX,1616349002
146,Polovinnoye,54.7914,65.9864,16.99,95,92,7.18,RU,1616349002
147,Beringovskiy,63.05,179.3167,-2.04,90,100,6.87,RU,1616349003
148,Carnarvon,-24.8667,113.6333,77.0,78,0,8.05,AU,1616349003
149,Gannan,47.9147,123.5031,25.52,68,0,6.62,CN,1616349003
150,Kavaratti,10.5669,72.642,82.85,71,0,9.04,IN,1616349004
151,Portland,45.5234,-122.6762,46.0,70,90,4.61,US,1616348165
152,Maningrida,-12.0667,134.2667,78.19,85,92,2.33,AU,1616349004
153,Hithadhoo,-0.6,73.0833,83.16,74,100,8.81,MV,1616348975
154,Khatanga,71.9667,102.5,-24.34,78,0,7.11,RU,1616349005
155,Bonavista,48.6499,-53.1147,37.4,48,2,8.05,CA,1616349005
156,Chui,-33.6971,-53.4616,72.77,73,86,14.29,UY,1616349005
157,Janaúba,-15.8025,-43.3089,82.58,52,92,10.38,BR,1616349006
158,Sakakah,29.9697,40.2064,82.4,11,0,4.61,SA,1616349006
159,Gamboula,4.1178,15.1393,73.44,83,96,2.24,CF,1616349006
160,Kruisfontein,-34.0033,24.7314,64.0,71,62,3.0,ZA,1616349006
161,Port Hawkesbury,45.6169,-61.3485,55.4,32,1,12.66,CA,1616349007
162,Sioux Lookout,50.1001,-91.917,50.0,50,90,10.36,CA,1616349007
163,Santa Barbara,34.7333,-120.0343,62.01,38,1,11.5,US,1616348733
164,Kiruna,67.8557,20.2251,17.6,79,25,9.22,SE,1616349008
165,Butaritari,3.0707,172.7902,81.75,76,85,16.04,KI,1616349008
166,Pimentel,-6.8367,-79.9342,80.6,61,0,17.27,PE,1616349008
167,Marzuq,14.4,46.4667,63.93,46,27,5.3,YE,1616349009
168,Valparaíso,-33.0393,-71.6273,68.0,49,0,8.05,CL,1616349009
169,Uslar,51.6569,9.635,42.8,61,75,19.57,DE,1616349009
170,San Policarpo,12.1791,125.5072,81.0,83,57,8.95,PH,1616349009
171,Qui Nhon,13.7667,109.2333,76.73,86,36,15.48,VN,1616349010
172,Port Elizabeth,-33.918,25.5701,62.6,77,20,8.05,ZA,1616349010
173,Tazovsky,67.4667,78.7,2.19,95,100,14.18,RU,1616349010
174,Ondarroa,43.3167,-2.4167,52.0,70,41,3.0,ES,1616349011
175,Rio Grande,-32.035,-52.0986,73.4,94,90,4.61,BR,1616348931
176,Lae,-6.7221,146.9847,77.14,78,50,6.42,PG,1616349011
177,Port Hardy,50.6996,-127.4199,41.0,87,90,19.57,CA,1616349012
178,Río Gallegos,-51.6226,-69.2181,64.4,34,0,13.8,AR,1616349012
179,Tarakan,3.3,117.6333,82.18,78,98,7.9,ID,1616349012
180,Pālanpur,24.1667,72.4333,74.93,29,24,4.92,IN,1616348963
181,Tasiilaq,65.6145,-37.6368,35.6,69,75,9.22,GL,1616349013
182,Narsaq,60.9167,-46.05,24.8,74,75,12.66,GL,1616349013
183,Shimoda,34.6667,138.95,62.01,65,86,1.01,JP,1616349013
184,Gwanda,-20.9333,29.0,73.26,49,3,6.91,ZW,1616349014
185,Cabo San Lucas,22.8909,-109.9124,84.0,34,1,3.94,MX,1616348738
186,Buala,-8.145,159.5921,79.43,83,96,3.76,SB,1616349014
187,Soteapan,18.2333,-94.8667,75.2,60,75,11.5,MX,1616349015
188,Popondetta,-8.7537,148.2534,75.87,85,89,2.89,PG,1616349015
189,Paso de Carrasco,-34.8603,-56.0522,73.4,64,75,13.8,UY,1616349015
190,Longyearbyen,78.2186,15.6401,15.8,73,75,16.11,SJ,1616349016
191,Iranshahr,27.2025,60.6848,80.6,11,20,4.61,IR,1616349016
192,Taltal,-25.4,-70.4833,71.64,66,7,6.58,CL,1616349016
193,Jumilla,38.4792,-1.325,55.0,39,0,10.0,ES,1616349017
194,Aklavik,68.2191,-135.0107,-20.2,76,40,2.3,CA,1616349017
195,Peleduy,59.6289,112.7406,-10.26,96,100,5.23,RU,1616349017
196,Anito,12.4497,125.2886,78.42,89,50,7.16,PH,1616349018
197,Jalu,29.0331,21.5482,79.56,14,83,16.8,LY,1616349018
198,Carutapera,-1.195,-46.02,83.68,72,99,6.26,BR,1616349018
199,Aranos,-24.1333,19.1167,76.12,51,62,13.02,NA,1616349018
200,Mar del Plata,-38.0023,-57.5575,64.4,68,75,13.8,AR,1616348733
201,Okhotsk,59.3833,143.3,12.47,94,100,10.71,RU,1616348745
202,Pushkino,56.0172,37.8667,30.0,93,90,13.42,RU,1616349019
203,Dunmore Town,25.5,-76.65,75.06,76,9,6.22,BS,1616349019
204,Arecibo,18.4724,-66.7157,84.99,60,8,7.0,PR,1616349020
205,Airai,-8.9266,125.4092,61.07,88,79,1.34,TL,1616349020
206,Senador José Porfírio,-2.5908,-51.9542,83.66,72,65,2.01,BR,1616349020
207,Hasaki,35.7333,140.8333,55.4,88,75,5.75,JP,1616349021
208,Esperance,-33.8667,121.9,66.2,72,0,13.8,AU,1616349021
209,Borgarnes,64.5383,-21.9206,44.01,90,90,32.01,IS,1616349021
210,Santa Marta,11.2408,-74.199,98.01,43,41,1.01,CO,1616348976
211,Pacifica,37.6138,-122.4869,55.99,76,1,12.66,US,1616348874
212,Dauriya,49.9333,116.8667,23.18,78,0,6.35,RU,1616349022
213,La Ronge,55.1001,-105.2842,21.2,53,100,16.11,CA,1616348908
214,Ust'-Uda,54.1742,103.0304,26.29,89,100,2.71,RU,1616349022
215,Englewood,39.6478,-104.9878,44.01,60,75,10.36,US,1616349023
216,Calabozo,8.9242,-67.4293,96.69,28,13,8.84,VE,1616349023
217,Nanortalik,60.1432,-45.2371,24.8,75,100,30.82,GL,1616348953
218,Sur,22.5667,59.5289,74.64,63,28,1.36,OM,1616349023
219,Port Moresby,-9.4431,147.1797,75.2,100,40,5.75,PG,1616349024
220,Altamira,-3.2033,-52.2064,84.79,75,77,1.21,BR,1616349024
221,Quibdó,5.6947,-76.6611,90.05,53,70,4.83,CO,1616349024
222,Okato,-39.2,173.8833,50.0,68,33,8.01,NZ,1616348974
223,Vila Velha,-20.3297,-40.2925,84.99,78,40,9.22,BR,1616348837
224,Laas,46.6166,10.7002,53.6,69,40,10.36,IT,1616349025
225,Sobolevo,54.4299,31.8996,27.84,95,100,13.89,RU,1616349025
226,Dunedin,-45.8742,170.5036,54.0,82,99,1.01,NZ,1616348992
227,Kushima,31.4583,131.2333,47.48,67,91,12.97,JP,1616349026
228,Juneau,58.3019,-134.4197,32.0,93,90,4.72,US,1616349026
229,Bijni,26.4959,90.703,72.21,28,7,2.93,IN,1616349026
230,Labuhan,-6.8844,112.2051,79.23,84,96,6.26,ID,1616349027
231,Virginia Beach,36.8529,-75.978,57.2,58,40,18.41,US,1616348776
232,Negombo,7.2083,79.8358,77.0,88,40,2.3,LK,1616349027
233,Te Anau,-45.4167,167.7167,45.93,95,69,1.01,NZ,1616349028
234,Tamworth,52.634,-1.6959,51.8,58,75,4.61,GB,1616349008
235,Mountain Home,43.133,-115.6912,42.8,52,1,17.27,US,1616349028
236,Dingle,10.9995,122.6711,78.31,86,84,7.81,PH,1616349028
237,Wewak,-3.5534,143.6268,79.86,81,94,3.38,PG,1616349029
238,Isangel,-19.55,169.2667,75.47,88,60,10.89,VU,1616349029
239,Alvarado,18.7667,-95.7667,77.0,57,90,3.44,MX,1616349029
240,Bogorodskoye,56.55,37.8833,26.8,91,100,13.42,RU,1616349030
241,Seoul,37.5683,126.9778,39.2,64,0,8.05,KR,1616348834
242,Williams Lake,52.1415,-122.1445,34.0,86,90,18.41,CA,1616349030
243,Talnakh,69.4865,88.3972,-14.39,58,66,6.29,RU,1616349031
244,Leh,34.1667,77.5833,30.0,55,85,7.25,IN,1616348818
245,Salalah,17.0151,54.0924,80.6,83,0,2.3,OM,1616349031
246,Lavrentiya,65.5833,-171.0,0.07,81,100,4.16,RU,1616349031
247,Kingaroy,-26.5333,151.8333,69.8,100,90,3.44,AU,1616349031
248,Balingasay,16.3573,119.8564,82.06,77,56,9.35,PH,1616349032
249,Versailles,48.8,2.1333,50.0,61,90,13.8,FR,1616349032
250,Noshiro,40.2039,140.0242,43.99,74,99,26.49,JP,1616349032
251,Yining,29.0361,114.5636,46.98,75,82,1.81,CN,1616349033
252,Itoman,26.1247,127.6694,62.6,55,75,25.32,JP,1616349033
253,Mitsamiouli,-11.3847,43.2844,83.32,72,45,3.91,KM,1616349033
254,Hong Kong,22.2855,114.1577,63.0,68,80,1.01,HK,1616348785
255,Smithers,54.7804,-127.1743,33.8,69,75,12.66,CA,1616349034
256,Andenes,69.3143,16.1194,28.4,74,75,14.97,NO,1616349034
257,Issia,6.4922,-6.5856,89.22,50,56,2.8,CI,1616349034
258,Terrace Bay,48.7834,-87.1,42.8,56,40,10.36,CA,1616349035
259,Port Augusta,-32.5,137.7667,69.8,78,100,4.61,AU,1616349035
260,Noumea,-22.2763,166.4572,71.6,83,90,1.14,NC,1616349035
261,Kedrovyy,56.1667,91.8167,35.6,80,40,8.95,RU,1616349036
262,Montepuez,-13.1256,38.9997,71.42,95,25,4.09,MZ,1616349036
263,Synya,65.3718,58.0387,12.87,95,81,6.73,RU,1616349036
264,Ambon City,-3.6954,128.1814,82.62,75,96,2.98,ID,1616349037
265,Khandyga,62.6667,135.6,16.23,79,100,7.47,RU,1616349037
266,Bengkulu,-3.8004,102.2655,76.57,89,100,6.53,ID,1616349011
267,Sergeevka,53.88,67.4158,23.54,94,100,6.78,KZ,1616349037
268,San Ignacio,17.1561,-89.0714,75.2,69,20,6.91,BZ,1616349038
269,Lata,40.1629,-8.3327,61.0,65,0,10.0,PT,1616349038
270,Saint Anthony,45.0205,-93.218,59.0,44,1,21.85,US,1616349039
271,Inírida,3.8653,-67.9239,92.7,45,62,3.22,CO,1616349039
272,Muravlenko,63.7898,74.523,3.72,95,94,11.32,RU,1616349039
273,Kataysk,56.289,62.5841,16.9,85,84,6.82,RU,1616349040
274,Makakilo City,21.3469,-158.0858,69.8,83,75,8.05,US,1616349040
275,Saint-Joseph,-21.3667,55.6167,78.8,83,90,18.41,RE,1616349040
276,Leningradskiy,69.3833,178.4167,-11.18,97,100,9.17,RU,1616349041
277,Bubaque,11.2833,-15.8333,76.12,76,64,16.8,GW,1616349041
278,Paamiut,61.994,-49.6678,23.25,80,100,12.17,GL,1616348793
279,Mossamedes,-15.1961,12.1522,73.56,80,35,8.79,AO,1616349042
280,Matara,5.9485,80.5353,76.53,89,99,4.03,LK,1616349042
281,Price,39.5994,-110.8107,39.2,33,90,14.97,US,1616349042
282,Nampula,-15.1165,39.2666,75.2,94,90,5.75,MZ,1616349043
283,Mount Gambier,-37.8333,140.7667,64.4,94,90,5.75,AU,1616349043
284,Shahreza,32.0339,51.8794,52.18,35,18,3.38,IR,1616349043
285,Alta Floresta,-9.8756,-56.0861,84.6,76,60,1.9,BR,1616349044
286,Oussouye,12.485,-16.5469,89.6,73,0,9.22,SN,1616349044
287,Sitka,57.0531,-135.33,35.6,93,90,10.36,US,1616349044
288,Batticaloa,7.7102,81.6924,80.31,76,100,3.89,LK,1616349045
289,Koutsouras,35.0339,25.9469,64.0,69,2,9.69,GR,1616349045
290,Zhezkazgan,47.8043,67.7144,31.42,97,100,11.14,KZ,1616349045
291,Hermitage,41.2334,-80.4487,61.0,19,1,8.05,US,1616349046
292,Iqaluit,63.7506,-68.5145,-9.4,70,75,2.3,CA,1616349046
293,Grand Gaube,-20.0064,57.6608,81.0,81,1,8.01,MU,1616349046
294,Yangi Marg`ilon,40.4272,71.7189,48.2,81,48,4.61,UZ,1616349047
295,Pushkinskiye Gory,57.0209,28.9103,30.27,87,100,9.75,RU,1616349047
296,Lorengau,-2.0226,147.2712,82.8,72,16,5.64,PG,1616349047
297,Pacific Grove,36.6177,-121.9166,55.0,66,1,4.23,US,1616349048
298,City of San Pedro,14.35,121.0167,82.99,78,40,4.61,PH,1616349048
299,Doctor Arroyo,23.6667,-100.1833,70.59,33,12,6.08,MX,1616349048
300,College,64.8569,-147.8028,-4.0,59,1,6.91,US,1616349041
301,Vao,-22.6667,167.4833,74.77,78,26,18.79,NC,1616348758
302,Porto-Novo,6.4965,2.6036,86.0,74,20,12.66,BJ,1616349049
303,Honiara,-9.4333,159.95,75.96,79,100,2.77,SB,1616349016
304,Ballina,-28.8667,153.5667,69.8,94,75,9.22,AU,1616349049
305,Klamath Falls,42.2249,-121.7817,37.0,75,1,3.91,US,1616349049
306,Westport,41.1415,-73.3579,60.01,28,1,6.91,US,1616349050
307,Bambous Virieux,-20.3428,57.7575,81.0,89,75,12.66,MU,1616349050
308,Ulaangom,49.9811,92.0667,13.44,73,100,2.84,MN,1616349050
309,Dovers,12.8833,-61.1833,82.4,69,40,13.8,VC,1616349051
310,Moree,-29.4667,149.85,69.8,88,40,11.5,AU,1616349051
311,Henties Bay,-22.116,14.2845,62.01,87,7,3.0,NA,1616349051
312,Ananas,19.2466,-71.9557,80.6,61,40,12.66,HT,1616349052
313,Departamento de Maldonado,-34.6667,-54.9167,71.6,73,75,14.97,UY,1616349052
314,Kyshtovka,56.555,76.6271,21.43,94,71,7.78,RU,1616349053
315,Soure,-0.7167,-48.5233,82.4,76,22,7.52,BR,1616349053
316,Muros,42.7762,-9.0603,62.01,52,0,10.07,ES,1616349053
317,Alice Springs,-23.7,133.8833,66.2,100,90,4.61,AU,1616349033
318,Iquique,-20.2208,-70.1431,75.2,46,0,19.57,CL,1616349054
319,Flinders,-34.5833,150.8552,68.0,98,100,5.99,AU,1616349054
320,Tilichiki,60.4667,166.1,-14.53,90,0,4.16,RU,1616349054
321,Pisco,-13.7,-76.2167,80.01,57,0,9.22,PE,1616349055
322,Karatsu,33.4425,129.9697,46.99,25,31,3.0,JP,1616349055
323,Stornoway,58.2093,-6.3865,48.0,93,75,12.66,GB,1616348784
324,Nhulunbuy,-12.2333,136.7667,77.0,94,74,3.83,AU,1616349055
325,Lumeje,-11.55,20.7833,70.74,76,26,3.24,AO,1616349056
326,Martaban,16.5314,97.6111,80.1,63,13,4.03,MM,1616349056
327,Kot Diji,27.3427,68.7083,71.6,64,75,25.32,PK,1616349056
328,Marathon,44.9,-89.7668,60.01,38,1,16.11,US,1616349057
329,Ürümqi,43.801,87.6005,35.6,69,0,4.47,CN,1616349057
330,Oulu,65.0124,25.4682,27.0,59,0,18.41,FI,1616349057
331,Chapais,49.7834,-74.8492,48.2,31,1,18.41,CA,1616349058
332,Akdepe,42.0551,59.3788,50.0,57,0,9.22,TM,1616349058
333,Muzhi,65.3667,64.6667,-1.62,91,99,5.32,RU,1616349059
334,Kaeo,-35.1,173.7833,52.0,91,7,5.01,NZ,1616349059
335,Zyryanka,65.75,150.85,-8.97,83,69,6.6,RU,1616349059
336,Mahibadhoo,3.7833,72.9667,83.52,68,49,6.49,MV,1616349060
337,Dwārka,22.2394,68.9678,77.22,80,0,13.53,IN,1616349060
338,Nouakchott,18.0858,-15.9785,78.8,41,40,19.57,MR,1616349060
339,Mersing,2.4312,103.8405,78.8,94,80,3.44,MY,1616349060
340,Mayahi,13.9553,7.6712,93.36,11,56,7.0,NE,1616349061
341,Finschhafen,-6.6024,147.8681,80.65,78,64,5.44,PG,1616349061
342,Matonga,-2.3833,34.0833,65.89,91,100,3.91,TZ,1616349062
343,Pont-à-Mousson,48.9079,6.0589,48.2,61,0,14.97,FR,1616349062
344,Randolph,35.7001,-79.8164,61.0,41,1,9.22,US,1616349062
345,Yima,34.7381,111.8839,46.99,99,49,8.37,CN,1616349063
346,Petropavlovsk-Kamchatskiy,53.0452,158.6483,19.4,68,75,4.47,RU,1616349063
347,Tevriz,57.509,72.4042,21.87,94,99,4.94,RU,1616349063
348,Ancud,-41.8697,-73.8203,66.2,52,0,6.91,CL,1616349064
349,Namatanai,-3.6667,152.4333,80.15,77,100,1.9,PG,1616349064
350,Saint-Pierre,-21.3393,55.4781,78.8,83,90,18.41,RE,1616349064
351,Dongsheng,39.8161,109.9776,28.35,25,0,10.83,CN,1616349047
352,Touros,-5.1989,-35.4608,87.8,58,20,18.41,BR,1616349065
353,Chokurdakh,70.6333,147.9167,-13.38,79,32,4.81,RU,1616349012
354,Boa Vista,2.8197,-60.6733,91.4,38,75,10.36,BR,1616349065
355,Yulara,-25.2406,130.9889,64.4,100,90,6.91,AU,1616349066
356,Talavera,15.6167,120.9333,78.8,83,40,2.3,PH,1616349066
357,Broken Hill,-31.95,141.4333,68.0,77,90,4.61,AU,1616349066
358,Garoowe,8.4054,48.4845,72.54,56,8,16.28,SO,1616349067
359,Kahului,20.8947,-156.47,66.2,100,90,21.85,US,1616348942
360,Cheney,47.4874,-117.5758,39.99,69,75,16.11,US,1616349067
361,Sanming,26.2486,117.6186,51.33,85,100,2.82,CN,1616349067
362,Fortuna,40.5982,-124.1573,51.01,76,90,14.97,US,1616349068
363,Nioro,13.35,-15.75,96.71,15,9,14.76,GM,1616348844
364,Mainit,9.535,125.5231,78.31,81,100,6.26,PH,1616349068
365,Svetlopolyansk,59.4184,52.3605,12.49,95,44,6.38,RU,1616349068
366,Vanavara,60.34,102.2797,-5.78,96,100,8.25,RU,1616349069
367,Arrondissement de Laon,49.5667,3.6667,46.4,66,90,14.97,FR,1616349069
368,Hokitika,-42.7167,170.9667,57.27,86,99,1.74,NZ,1616349070
369,Graaff-Reinet,-32.2522,24.5308,64.0,63,0,5.99,ZA,1616349070
370,Mocuba,-16.8392,36.9856,73.18,96,100,2.91,MZ,1616349070
371,Klaksvík,62.2266,-6.589,44.6,100,75,18.41,FO,1616349071
372,Stephenville,32.2207,-98.2023,61.0,55,1,12.66,US,1616348952
373,Aleksandrovskiy Zavod,50.9237,117.9374,18.75,86,43,5.01,RU,1616349071
374,Terney,45.0503,136.6092,29.41,97,100,2.73,RU,1616349071
375,Barra do Garças,-15.89,-52.2567,91.4,49,40,2.3,BR,1616348858
376,Harlingen,26.1906,-97.6961,75.99,50,20,11.5,US,1616348918
377,Nome,64.5011,-165.4064,12.2,67,90,1.14,US,1616348996
378,Cabedelo,-6.9811,-34.8339,86.0,62,40,11.5,BR,1616348957
379,Ilulissat,69.2167,-51.1,12.2,85,75,23.02,GL,1616349072
380,Kodarmā,24.4667,85.6,73.98,19,0,1.79,IN,1616349073
381,Saint-Augustin,51.226,-58.6502,32.4,97,83,15.64,CA,1616349073
382,Slave Lake,55.2834,-114.769,26.6,59,1,6.91,CA,1616349073
383,Tarashcha,49.5583,30.4926,33.37,63,0,10.96,UA,1616349074
384,Nemuro,43.3236,145.575,37.11,99,100,19.51,JP,1616349074
385,Hailar,49.2,119.7,23.22,62,0,8.46,CN,1616349074
386,Nytva,57.9404,55.334,19.4,68,75,8.95,RU,1616349075
387,Geraldton,-28.7667,114.6,71.6,88,75,8.05,AU,1616349075
388,Sørland,67.667,12.6934,33.8,75,75,6.91,NO,1616349075
389,Polyarny,69.1989,33.4478,26.6,74,20,4.47,RU,1616348989
390,Valera,9.3178,-70.6036,80.17,75,73,3.0,VE,1616349076
391,Cherskiy,68.75,161.3,-15.79,73,0,5.79,RU,1616349076
392,Sawai Madhopur,25.9833,76.3667,78.28,16,0,3.91,IN,1616349076
393,Strelka,58.0728,93.0344,30.27,90,100,11.23,RU,1616349077
394,Atar,20.5169,-13.0499,86.07,10,19,9.53,MR,1616349077
395,Mangan,27.5167,88.5333,64.81,56,73,6.15,IN,1616349077
396,Vila Franca do Campo,37.7167,-25.4333,59.0,77,75,6.91,PT,1616349078
397,Eggenfelden,48.4054,12.7626,34.0,88,98,1.01,DE,1616349078
398,Sosnovo-Ozerskoye,52.5249,111.5418,19.42,84,100,8.72,RU,1616349078
399,Saint Joseph,39.7686,-94.8466,61.0,51,1,20.71,US,1616349036
400,Saint-Amand-les-Eaux,50.4472,3.4308,44.6,65,90,13.8,FR,1616349079
401,Berbérati,4.2612,15.7922,73.09,87,75,3.98,CF,1616349079
402,Durban,-29.8579,31.0292,73.99,68,75,9.22,ZA,1616349079
403,Pierre,44.3683,-100.351,52.0,50,90,24.16,US,1616348948
404,Eatonton,33.3268,-83.3885,62.6,55,90,6.91,US,1616349080
405,Muscat,23.6139,58.5922,84.2,23,0,4.61,OM,1616349080
406,Vardø,70.3705,31.1107,24.8,93,20,14.97,NO,1616349080
407,Palu,-0.8917,119.8707,75.9,93,57,2.64,ID,1616349081
408,Kiryat Gat,31.61,34.7642,75.0,53,95,3.09,IL,1616349045
409,Balta,47.9355,29.6198,35.24,56,0,5.93,UA,1616349081
410,San Patricio,28.017,-97.5169,75.2,41,1,5.75,US,1616349082
411,Shevchenkove,49.6959,37.1735,35.6,60,75,8.95,UA,1616349082
412,Kavieng,-2.5744,150.7967,82.99,74,99,6.51,PG,1616348967
413,Toora-Khem,52.4675,96.11,24.13,88,100,1.39,RU,1616349082
414,Lakes Entrance,-37.8811,147.981,64.0,88,99,5.01,AU,1616349083
415,North Bend,43.4065,-124.2243,46.99,93,75,5.75,US,1616349083
416,Neuquén,-38.9516,-68.0591,78.8,25,0,16.11,AR,1616348955
417,Adrar,20.5022,-10.0711,82.04,13,0,8.25,MR,1616349083
418,Imbituba,-28.24,-48.6703,86.0,70,75,11.5,BR,1616349084
419,Bilma,18.6853,12.9164,91.27,10,23,9.8,NE,1616349084
420,Mujiayingzi,42.1167,118.7833,30.81,35,32,9.13,CN,1616349084
421,Bagdarin,54.4333,113.6,16.66,80,100,2.95,RU,1616349085
422,Bukachacha,52.9833,116.9167,20.62,90,68,2.68,RU,1616349085
423,Deputatsky,69.3,139.9,-20.58,97,31,1.95,RU,1616349085
424,Hambantota,6.1241,81.1185,78.58,83,99,6.06,LK,1616349086
425,Nyurba,63.2842,118.3319,-23.46,96,63,6.46,RU,1616349086
426,Kakching,24.4833,93.9833,60.4,47,0,1.12,IN,1616349086
427,Mishan,45.55,131.8833,28.56,84,96,17.22,CN,1616349087
428,Vanimo,-2.6741,141.3028,77.92,87,84,3.56,PG,1616349087
429,Palāsa,18.7667,84.4167,77.77,60,2,5.17,IN,1616349087
430,Thinadhoo,0.5333,72.9333,83.46,72,90,8.48,MV,1616349088
431,Caluquembe,-13.7833,14.6833,61.66,94,15,5.93,AO,1616349088
432,Maţāy,28.419,30.7792,88.02,15,71,3.78,EG,1616349088
433,Constitución,-35.3333,-72.4167,65.89,63,2,8.05,CL,1616349089
434,Coralville,41.6764,-91.5805,62.01,41,1,21.85,US,1616349089
435,Kloulklubed,7.0419,134.2556,77.0,94,75,3.44,PW,1616349089
436,Hurghada,27.2574,33.8129,78.8,44,0,6.91,EG,1616349090
437,Healesville,-37.65,145.5167,60.01,99,66,2.39,AU,1616349090
438,Tautira,-17.7333,-149.15,82.4,65,20,2.3,PF,1616349090
439,Los Llanos de Aridane,28.6585,-17.9182,64.4,59,75,10.36,ES,1616349091
440,Kathu,7.9178,98.3332,88.0,83,20,2.3,TH,1616349091
441,Eyl,7.9803,49.8164,76.95,74,24,14.09,SO,1616349091
442,Santo Antônio do Içá,-3.1022,-67.9397,92.25,47,54,4.81,BR,1616349092
443,Bolobo,-2.1667,16.2333,76.87,76,39,5.48,CD,1616349092
444,Den Helder,52.9599,4.7593,43.0,75,90,11.5,NL,1616349092
445,Yanam,16.7333,82.2167,75.61,81,19,2.13,IN,1616349093
446,Cidreira,-30.1811,-50.2056,77.05,87,100,8.79,BR,1616349031
447,Prince Rupert,54.3161,-130.3201,42.8,81,90,4.61,CA,1616349093
448,Mīzan Teferī,6.9833,35.5833,67.12,69,99,1.72,ET,1616349093
449,Qasigiannguit,68.8193,-51.1922,12.2,85,75,23.02,GL,1616349094
450,Kumul,42.8,93.45,41.74,22,0,2.28,CN,1616348946
451,Luanda,-8.8368,13.2343,78.8,89,75,6.91,AO,1616349018
452,Mount Isa,-20.7333,139.5,78.8,78,75,5.75,AU,1616349094
453,Waipawa,-41.4122,175.5153,57.2,82,90,12.66,NZ,1616349094
454,Mandera,3.9366,41.867,89.51,37,40,5.86,KE,1616349095
455,São Félix do Xingu,-6.6447,-51.995,84.31,75,73,2.64,BR,1616349036
456,Armidale,-30.5167,151.65,57.0,95,100,7.0,AU,1616349095
457,Bajos de Haina,18.4154,-70.0332,86.0,62,40,6.91,DO,1616349096
458,Zhuhai,22.2769,113.5678,62.6,67,40,24.16,CN,1616349096
459,Goundam,16.4145,-3.6708,93.97,10,43,8.75,ML,1616349096
460,Kindu,-2.95,25.95,72.5,90,99,3.04,CD,1616349096
461,Bahía Blanca,-38.7196,-62.2724,72.97,30,0,11.54,AR,1616349007
462,Batagay,67.6333,134.6333,0.12,85,100,3.56,RU,1616349097
463,Grindavik,63.8424,-22.4338,44.6,87,90,31.07,IS,1616349097
464,Kuytun,54.3419,101.5036,29.43,85,100,3.74,RU,1616349098
465,Safaga,26.7292,33.9365,78.8,44,0,6.91,EG,1616349098
466,Mayaky,47.4408,29.5599,35.24,51,0,6.31,UA,1616349098
467,Kamaishi,39.2667,141.8833,45.86,84,100,5.66,JP,1616349099
468,Muli,2.9167,73.5667,83.48,67,72,6.64,MV,1616349099
469,Örnsköldsvik,63.2909,18.7153,32.0,47,0,11.5,SE,1616349099
470,Shilka,51.85,116.0333,25.21,85,83,6.91,RU,1616349100
471,Lagoa,39.05,-27.9833,58.82,74,90,10.4,PT,1616349100
472,Northam,51.0333,-4.2167,48.99,81,88,1.99,GB,1616349100
473,Chernyshevskiy,63.0128,112.4714,-31.97,92,0,3.4,RU,1616349101
474,Sept-Îles,50.2001,-66.3821,33.8,75,75,6.91,CA,1616349101
475,Marawi,7.9986,124.2928,75.99,91,87,4.0,PH,1616349102
476,Corrientes,-27.4806,-58.8341,73.0,73,90,20.71,AR,1616349102
477,Sambava,-14.2667,50.1667,79.38,84,99,9.19,MG,1616349102
478,Ucluelet,48.9329,-125.5528,44.01,93,90,3.44,CA,1616348891
479,Santa María del Oro,25.9333,-105.3667,76.93,10,0,0.58,MX,1616349103
480,Fort Nelson,58.8053,-122.7002,10.4,56,75,3.44,CA,1616349103
481,Kauhajoki,62.4333,22.1833,30.99,55,0,11.5,FI,1616349103
482,Foieni,47.7,22.3833,36.0,69,0,5.75,RO,1616349104
483,Okahandja,-21.9833,16.9167,68.0,73,70,1.99,NA,1616349104
484,Bandarbeyla,9.4942,50.8122,78.69,66,0,9.15,SO,1616349104
485,Bandar,2.05,99.75,73.92,93,99,2.71,ID,1616349105
486,Elizabeth City,36.2946,-76.2511,60.01,58,1,23.02,US,1616348970
487,Takoradze,4.8845,-1.7554,82.81,77,21,12.12,GH,1616349105
488,Baykit,61.67,96.37,-4.4,98,100,4.12,RU,1616349105
489,Nizwá,22.9333,57.5333,70.2,18,0,5.59,OM,1616349106
490,Tura,25.5198,90.2201,74.14,27,0,2.42,IN,1616349106
491,Basoko,1.2391,23.616,69.87,95,100,2.35,CD,1616349106
492,Joshīmath,30.5667,79.5667,50.52,52,27,5.03,IN,1616349107
493,Hukuntsi,-24.0,21.75,77.25,44,76,12.37,BW,1616349107
494,Korla,41.7597,86.1469,44.62,42,62,3.44,CN,1616349107
495,Yerbogachën,61.2767,108.0108,-16.91,91,100,6.78,RU,1616349108
496,Marsh Harbour,26.5412,-77.0636,76.48,69,2,14.83,BS,1616349091
497,Malinovoye Ozero,51.6753,79.7825,31.14,93,98,6.46,RU,1616349108
498,Puerto Madryn,-42.7692,-65.0385,74.26,35,0,20.51,AR,1616349108
499,Asău,46.4333,26.4,36.0,47,30,4.29,RO,1616349109
500,Labuan,5.2767,115.2417,80.6,83,20,4.61,MY,1616349109
501,Goderich,43.7501,-81.7165,55.4,21,0,11.5,CA,1616349110
502,Kieta,-6.2167,155.6333,79.16,83,81,1.68,PG,1616349110
503,Soria,41.6667,-2.6667,39.0,69,96,11.99,ES,1616349110
504,Long Xuyen,10.3833,105.4167,80.6,83,12,9.22,VN,1616349021
505,Horta,38.5333,-28.6333,62.6,77,75,13.8,PT,1616349111
506,Cap Malheureux,-19.9842,57.6142,81.0,81,1,8.01,MU,1616349111
507,Pangody,65.85,74.4859,0.61,96,100,7.14,RU,1616349111
508,Bariloche,-41.1456,-71.3082,75.99,24,0,11.5,AR,1616349101
509,Batagay-Alyta,67.8006,130.4114,-9.24,94,100,3.67,RU,1616349112
510,Ola,59.5833,151.2833,5.54,86,100,5.88,RU,1616349112
511,Wanaka,-44.7,169.15,49.41,93,74,1.07,NZ,1616349113
512,Tibati,6.4667,12.6333,71.89,84,97,6.13,CM,1616349113
513,Ostrovnoy,68.0531,39.5131,21.79,93,100,4.94,RU,1616348954
514,Ambilobe,-13.2,49.05,76.15,91,94,2.42,MG,1616349113
515,Witham,51.8001,0.6404,46.99,71,100,6.44,GB,1616349114
516,Nelson Bay,-32.7167,152.15,66.2,100,90,6.91,AU,1616349114
517,Ahipara,-35.1667,173.1667,55.87,86,6,4.9,NZ,1616349061
518,Truro,50.2653,-5.0544,50.0,87,90,10.36,GB,1616349114
519,Waynesville,35.4887,-82.9887,55.0,49,33,4.0,US,1616349115
520,San Quintín,30.4833,-115.95,60.12,64,99,15.41,MX,1616349115
521,Macamic,48.7502,-78.9996,51.8,30,1,17.27,CA,1616349115
522,Gizo Government Station,-8.103,156.8419,81.84,75,78,11.81,SB,1616349116
523,Santa Cruz de la Sierra,-17.8,-63.1667,69.8,94,90,20.71,BO,1616349116
524,Abéché,13.8292,20.8324,85.44,9,89,2.68,TD,1616349116
525,Barcelos,41.5388,-8.6151,59.0,62,0,12.66,PT,1616349117
526,Florianópolis,-27.6146,-48.5012,86.0,70,75,11.5,BR,1616349118
527,Kotovo,50.3211,44.8012,27.75,86,38,8.39,RU,1616349119
528,Bonthe,7.5264,-12.505,82.85,62,24,13.06,SL,1616349119
529,Namie,37.4833,141.0,48.0,95,100,6.04,JP,1616349119
530,Yumen,40.2833,97.2,33.13,23,0,7.31,CN,1616349120
531,Russell,32.3502,-85.1999,64.4,52,40,8.05,US,1616349120
532,Meulaboh,4.1363,96.1285,77.27,88,99,4.83,ID,1616349121
533,Roxana,10.2753,-83.7513,82.99,57,75,14.97,CR,1616349121
534,Laguna,38.421,-121.4238,55.99,58,1,14.97,US,1616349121
535,Tanout,14.9709,8.8879,94.06,9,50,12.53,NE,1616349122
536,Saldanha,-33.0117,17.9442,75.2,46,0,11.5,ZA,1616349122
537,Zaykovo,57.5613,62.7568,16.61,92,92,5.44,RU,1616349123
538,Verkhoyansk,67.5447,133.385,-0.62,93,99,3.09,RU,1616349123
539,Banfora,10.6333,-4.7667,88.88,43,77,4.34,BF,1616349123
540,Skjervøy,70.0311,20.9714,26.6,68,75,13.8,NO,1616349124
541,Araouane,18.9048,-3.5265,87.67,8,36,6.98,ML,1616349124
542,Raglan,-37.8,174.8833,48.99,90,0,3.83,NZ,1616349124
543,Predivinsk,57.0669,93.4378,32.29,94,89,9.57,RU,1616349125
544,São Borja,-28.6606,-56.0044,75.83,72,97,8.21,BR,1616349125
545,Bestöbe,52.4994,73.0975,23.09,88,92,10.27,KZ,1616349125
546,Pauini,-7.7136,-66.9764,77.85,73,85,3.42,BR,1616349125
547,Domoni,-12.2569,44.5319,80.58,78,21,3.91,KM,1616349126
548,Bergen,60.392,5.328,37.99,81,75,3.44,NO,1616349126
549,Shelburne,44.0787,-80.2041,62.6,17,20,9.22,CA,1616349126
550,Esim,4.8699,-2.2405,81.9,80,33,10.47,GH,1616349127
551,Sydney,-33.8679,151.2073,66.99,100,90,12.66,AU,1616348966
552,Gigmoto,13.7796,124.39,78.69,88,74,8.63,PH,1616349127
553,Vilhena,-12.7406,-60.1458,80.6,74,40,9.22,BR,1616349128
554,Maungatapere,-35.75,174.2,52.0,91,7,5.01,NZ,1616349128
555,Belaya Kholunitsa,58.84,50.8528,14.54,93,52,6.4,RU,1616349128
556,Kutum,14.2,24.6667,78.91,13,51,8.41,SD,1616349048
557,Conde,-7.2597,-34.9075,86.0,62,40,11.5,BR,1616349054
558,Libertador General San Martín,-23.8064,-64.7876,79.34,49,71,3.6,AR,1616349129
559,Yashkul',46.1711,45.3435,38.53,72,91,0.22,RU,1616349129
560,Belyy Yar,53.6039,91.3903,39.2,56,0,6.71,RU,1616349069
561,Krasnosel'kup,65.7,82.4667,1.67,94,100,15.84,RU,1616349023
562,Ekhabi,53.5102,142.9671,19.96,90,100,11.72,RU,1616348962
563,Santa Fe,-31.6333,-60.7,82.0,42,0,3.0,AR,1616348879
564,Grahamstown,-33.3042,26.5328,53.44,86,38,7.14,ZA,1616349130
565,Dudinka,69.4058,86.1778,-11.6,59,85,8.21,RU,1616349130
566,Dalvik,65.9702,-18.5286,48.2,53,0,25.32,IS,1616349131
567,Sawtell,-30.3833,153.1,71.6,83,75,12.66,AU,1616349131
568,Kallaste,58.655,27.1592,35.01,80,90,12.66,EE,1616349131
569,Waxahachie,32.3865,-96.8483,63.0,59,1,11.5,US,1616349132
570,Karpogory,64.0019,44.4451,22.44,95,100,7.58,RU,1616349132
571,Kisi,9.0833,3.85,93.07,27,90,2.59,NG,1616349132
572,Verāval,20.9,70.3667,76.3,79,0,6.46,IN,1616349133
573,Alzamay,55.5562,98.6644,31.69,83,90,6.85,RU,1616349133
574,Ilmajoki,62.7333,22.5667,30.99,55,0,11.5,FI,1616349133
575,Kailua,21.4022,-157.7394,69.8,83,90,14.97,US,1616349134
576,Poum,-20.2333,164.0167,78.04,75,12,10.87,NC,1616349134
577,Kayerkan,69.3497,87.7602,-14.26,57,77,5.61,RU,1616349134
578,Severo-Kuril'sk,50.6789,156.125,27.0,83,100,19.55,RU,1616349134
579,Knysna,-34.0363,23.0471,60.8,82,40,6.91,ZA,1616349135
580,Şuraabad,40.8192,49.4687,44.6,93,90,11.5,AZ,1616349137
581,Izhevskoye,54.5567,40.8703,21.74,88,78,11.68,RU,1616349137
582,Ves'yegonsk,58.664,37.2604,30.13,93,100,10.63,RU,1616349138
583,Kysyl-Syr,63.8986,122.7617,-20.67,99,100,3.33,RU,1616349138
584,Osypenko,46.9136,36.8253,36.0,100,63,5.99,UA,1616349138
585,Forsytheganj,52.6333,29.7333,29.8,74,100,12.03,BY,1616349138
586,Richards Bay,-28.783,32.0377,71.35,88,81,10.8,ZA,1616349139
587,Batemans Bay,-35.7167,150.1833,70.0,85,95,5.99,AU,1616349139
588,Belgrade,44.804,20.4651,39.99,87,75,4.61,RS,1616348875
589,Abhā,18.2164,42.5053,66.2,77,0,9.22,SA,1616348951
590,Mahon,39.8885,4.2658,50.0,53,20,14.97,ES,1616349140
591,Caravelas,-17.7125,-39.2481,82.81,63,48,7.16,BR,1616348975
592,Bahía Honda,22.9036,-83.1592,74.86,53,53,9.17,CU,1616349140
593,Acapulco de Juárez,16.8634,-99.8901,84.2,65,40,6.91,MX,1616349140
594,Jacqueville,5.2052,-4.4146,82.4,83,20,14.97,CI,1616349141
595,Kuala Terengganu,5.3302,103.1408,82.4,78,20,3.44,MY,1616348945
