,City,Lat,Lng,Max Temp,Humidity,Cloudiness,Wind Speed,Country,Date
0,Cape Town,-33.9258,18.4232,89.01,42,0,11.5,ZA,1616508918
1,Hobart,-42.8794,147.3294,64.0,88,40,6.91,AU,1616509005
2,Castro,-24.7911,-50.0119,77.4,63,37,3.83,BR,1616509056
3,Butaritari,3.0707,172.7902,81.25,79,35,20.58,KI,1616508915
4,Xifeng,42.7372,124.7222,45.01,42,100,2.71,CN,1616509057
5,Chokurdakh,70.6333,147.9167,-10.3,94,100,13.96,RU,1616509058
6,Rikitea,-23.1203,-134.9692,79.75,72,9,9.48,PF,1616509058
7,Port Blair,11.6667,92.75,83.1,79,89,7.09,IN,1616508911
8,Saint-Philippe,-21.3585,55.7679,82.4,74,20,2.3,RE,1616509058
9,Skælskør,55.2506,11.2935,45.0,84,2,7.0,DK,1616509059
10,Novovarshavka,54.1721,74.6946,25.12,95,100,11.05,RU,1616509059
11,Busselton,-33.65,115.3333,52.0,90,0,10.38,AU,1616508985
12,Ambilobe,-13.2,49.05,81.34,87,94,2.84,MG,1616509059
13,Yellowknife,62.456,-114.3525,-13.0,64,75,9.22,CA,1616508903
14,Bingöl,38.8847,40.4939,48.2,93,75,4.61,TR,1616509061
15,Ushuaia,-54.8,-68.3,46.4,87,90,5.46,AR,1616508903
16,Santiago de Cao,-7.9589,-79.2392,71.6,83,26,9.22,PE,1616509061
17,Airai,-8.9266,125.4092,61.34,93,85,1.61,TL,1616509024
18,Coquimbo,-29.9533,-71.3436,64.4,72,0,3.44,CL,1616508995
19,Punta Arenas,-53.15,-70.9167,50.0,87,40,13.8,CL,1616508859
20,Bredasdorp,-34.5322,20.0403,77.0,53,0,20.71,ZA,1616508989
21,Zasechnoye,53.1092,45.0764,32.81,99,100,5.08,RU,1616509062
22,Pimentel,-6.8367,-79.9342,72.0,83,40,8.05,PE,1616509062
23,Kruisfontein,-34.0033,24.7314,78.01,57,0,8.01,ZA,1616509063
24,Saint Anthony,45.0205,-93.218,45.0,70,90,8.05,US,1616509063
25,Ribeira Grande,38.5167,-28.7,59.0,55,40,16.11,PT,1616509000
26,Ponta do Sol,32.6667,-17.1,66.2,45,40,8.05,PT,1616509063
27,Carnarvon,-24.8667,113.6333,75.2,73,0,20.71,AU,1616509064
28,Vardø,70.3705,31.1107,33.8,80,0,28.77,NO,1616509028
29,Mataura,-46.1927,168.8643,54.0,98,100,1.63,NZ,1616508992
30,Nome,64.5011,-165.4064,-5.8,77,1,9.22,US,1616509064
31,Teahupoo,-17.8333,-149.2667,78.8,83,20,3.44,PF,1616509065
32,Albany,42.6001,-73.9662,50.0,35,41,3.18,US,1616509001
33,Qaqortoq,60.7167,-46.0333,21.2,42,1,8.05,GL,1616509065
34,Singaraja,-8.112,115.0882,80.35,85,100,3.94,ID,1616509065
35,Avarua,-21.2078,-159.775,80.6,89,20,9.22,CK,1616509066
36,Mazamari,-11.3258,-74.5308,69.19,99,100,0.65,PE,1616509066
37,Iqaluit,63.7506,-68.5145,-18.0,57,40,19.57,CA,1616508999
38,Tuktoyaktuk,69.4541,-133.0374,-11.2,77,1,19.57,CA,1616509008
39,Freeport,40.6576,-73.5832,48.99,87,20,6.91,US,1616508820
40,Longyearbyen,78.2186,15.6401,24.8,68,90,13.8,SJ,1616509015
41,Cidreira,-30.1811,-50.2056,70.88,95,100,4.32,BR,1616509021
42,Hong Kong,22.2855,114.1577,68.0,67,100,1.01,HK,1616508955
43,Vasil'yevo,55.836,48.6582,33.8,75,90,6.71,RU,1616509067
44,Kahului,20.8947,-156.47,64.4,100,1,4.52,US,1616509021
45,Fairbanks,64.8378,-147.7164,12.2,85,90,2.51,US,1616509068
46,East London,-33.0153,27.9116,71.6,68,20,16.11,ZA,1616509011
47,São João da Barra,-21.6403,-41.0511,86.0,58,40,6.91,BR,1616509068
48,Ampanihy,-24.7,44.75,77.61,75,82,13.44,MG,1616509068
49,Talnakh,69.4865,88.3972,1.02,96,100,7.67,RU,1616509008
50,Lieksa,63.3167,30.0167,33.22,97,100,12.95,FI,1616509069
51,Hithadhoo,-0.6,73.0833,84.06,66,8,7.9,MV,1616509020
52,Cherskiy,68.75,161.3,6.31,88,100,7.38,RU,1616509025
53,Arraial do Cabo,-22.9661,-42.0278,84.2,70,20,10.36,BR,1616509070
54,Jamestown,42.097,-79.2353,53.01,43,1,7.85,US,1616508927
55,Keetmanshoop,-26.5833,18.1333,84.2,39,40,3.44,NA,1616509070
56,Cabedelo,-6.9811,-34.8339,86.0,66,75,11.5,BR,1616509070
57,New Norfolk,-42.7826,147.0587,64.0,69,100,1.01,AU,1616509071
58,Bandarbeyla,9.4942,50.8122,80.35,54,0,9.98,SO,1616509071
59,‘Āhuimanu,21.4447,-157.8378,68.0,83,20,3.44,US,1616509071
60,Lumut,4.2323,100.6298,77.0,94,40,2.3,MY,1616509072
61,Pemangkat,1.1667,108.9667,78.48,84,100,6.22,ID,1616509072
62,Barrow,71.2906,-156.7887,-2.2,71,20,13.8,US,1616509010
63,Nikolskoye,59.7035,30.7861,39.2,35,75,13.42,RU,1616508998
64,Tiksi,71.6872,128.8694,-22.58,100,100,5.19,RU,1616509004
65,Port Alfred,-33.5906,26.891,73.78,63,10,19.86,ZA,1616509021
66,Alihe,50.5667,123.7167,26.04,96,100,2.57,CN,1616509073
67,San Quintín,30.4833,-115.95,53.78,79,87,10.49,MX,1616509073
68,Nizhnekamsk,55.6366,51.8245,32.0,93,90,11.18,RU,1616509073
69,Cabo San Lucas,22.8909,-109.9124,57.2,62,1,9.22,MX,1616508925
70,Lashio,22.9333,97.75,73.08,33,1,0.81,MM,1616509074
71,Kulhudhuffushi,6.6221,73.07,83.17,71,45,8.03,MV,1616509074
72,Rosetta,31.4044,30.4164,68.0,64,40,19.57,EG,1616509074
73,Saint George,37.1041,-113.5841,46.99,57,90,11.5,US,1616508904
74,Port Elizabeth,-33.918,25.5701,73.4,68,20,19.57,ZA,1616509002
75,Tasiilaq,65.6145,-37.6368,19.4,49,75,4.61,GL,1616509015
76,Todos Santos,23.45,-110.2167,63.0,44,1,5.75,MX,1616509075
77,Ulaanbaatar,47.9077,106.8832,23.0,63,0,4.47,MN,1616508940
78,Salina,38.8403,-97.6114,51.8,87,90,4.61,US,1616508978
79,Atuona,-9.8,-139.0333,79.93,68,7,20.15,PF,1616508994
80,Upernavik,72.7868,-56.1549,-10.46,87,100,1.19,GL,1616509076
81,Lebu,-37.6167,-73.65,59.13,69,77,7.99,CL,1616508998
82,Mar del Plata,-38.0023,-57.5575,69.8,73,20,6.91,AR,1616508985
83,Duki,30.1541,68.5728,66.85,31,0,4.81,PK,1616509076
84,Severo-Kuril'sk,50.6789,156.125,24.82,76,29,10.02,RU,1616509077
85,Vaini,-21.2,-175.2,71.6,100,75,2.3,TO,1616509007
86,Griffith,41.5284,-87.4237,59.0,58,40,10.36,US,1616509077
87,Norman Wells,65.282,-126.8329,-14.8,76,20,10.36,CA,1616509029
88,Kaitangata,-46.2817,169.8464,53.31,93,100,3.13,NZ,1616509036
89,Creemore,44.327,-80.1075,59.0,25,100,3.44,CA,1616509078
90,Otane,-39.8833,176.6333,51.01,90,0,1.52,NZ,1616509078
91,Katsuura,35.1333,140.3,55.4,58,0,11.5,JP,1616509079
92,Yambio,4.5721,28.3955,85.95,53,100,3.42,SS,1616509079
93,Innisfail,-17.5333,146.0333,76.01,83,99,2.86,AU,1616508903
94,Lompoc,34.6391,-120.4579,46.4,87,1,3.44,US,1616509080
95,Potam,27.6,-110.3833,50.0,61,20,8.05,MX,1616509080
96,Vila Franca do Campo,37.7167,-25.4333,55.4,88,75,18.41,PT,1616509080
97,Powell,40.1578,-83.0752,57.2,44,1,11.5,US,1616509071
98,Kapaa,22.0752,-159.319,66.2,94,1,6.91,US,1616509006
99,Pisco,-13.7,-76.2167,71.6,73,0,4.61,PE,1616509081
100,Smoky Lake,54.1169,-112.4686,12.2,72,12,6.91,CA,1616509081
101,Araouane,18.9048,-3.5265,91.26,7,53,16.51,ML,1616509082
102,Dergachi,51.2328,48.7659,32.92,98,100,12.08,RU,1616509082
103,Camopi,3.1655,-52.3158,78.33,89,96,3.91,GF,1616509082
104,Sitka,57.0531,-135.33,39.2,81,90,17.27,US,1616509005
105,Hilo,19.7297,-155.09,66.2,77,20,8.05,US,1616508764
106,Nemuro,43.3236,145.575,35.38,77,91,16.96,JP,1616509083
107,Klaksvík,62.2266,-6.589,46.4,93,75,17.27,FO,1616508712
108,Bang Saphan,11.2126,99.5117,80.6,83,20,2.3,TH,1616509083
109,Oranjemund,-28.55,16.4333,72.88,62,1,10.31,NA,1616509022
110,Puerto Ayora,-0.7393,-90.3518,77.0,94,75,4.61,EC,1616508990
111,Bizhbulyak,53.6967,54.2642,28.44,93,100,12.33,RU,1616509084
112,Hamilton,39.1834,-84.5333,57.99,50,90,8.05,US,1616509084
113,Quatre Cocos,-20.2078,57.7625,82.99,78,40,6.91,MU,1616509085
114,Hermanus,-34.4187,19.2345,81.0,58,0,8.99,ZA,1616508794
115,San Cristobal,7.7669,-72.225,77.0,88,40,4.61,VE,1616509085
116,Semporna,4.4818,118.6112,75.2,94,20,2.3,MY,1616509007
117,Leh,34.1667,77.5833,30.24,52,100,3.83,IN,1616509086
118,Thompson,55.7435,-97.8558,-9.4,64,1,10.36,CA,1616508903
119,Qaanaaq,77.484,-69.3632,-14.28,65,35,7.31,GL,1616508993
120,Tateyama,34.9833,139.8667,55.99,60,1,7.58,JP,1616509086
121,Islāmpur,26.2667,88.2,86.38,13,1,4.32,IN,1616509087
122,Florida,28.7505,-82.5001,66.0,88,40,5.75,US,1616508801
123,Erenhot,43.6475,111.9767,42.91,38,0,8.03,CN,1616509087
124,Yaan,7.3833,8.5667,93.87,34,63,5.64,NG,1616509087
125,Maningrida,-12.0667,134.2667,78.55,87,88,3.87,AU,1616509088
126,Mersing,2.4312,103.8405,78.8,89,100,8.05,MY,1616509032
127,Kyra,49.5776,111.9753,28.04,77,86,3.85,RU,1616509088
128,Pevek,69.7008,170.3133,1.83,77,100,7.05,RU,1616509088
129,Mayo,38.8876,-76.5119,55.0,71,90,3.44,US,1616509089
130,São Filipe,14.8961,-24.4956,71.06,72,7,7.87,CV,1616509089
131,Muros,42.7762,-9.0603,64.99,64,3,7.18,ES,1616509004
132,Okhotsk,59.3833,143.3,-1.19,96,100,8.99,RU,1616509089
133,Dzaoudzi,-12.7887,45.2699,84.2,70,0,4.61,YT,1616509090
134,Vestmanna,62.1564,-7.1664,46.4,93,75,17.27,FO,1616509090
135,Bluff,-46.6,168.3333,54.0,98,100,5.93,NZ,1616508996
136,Asău,46.4333,26.4,39.2,60,75,11.5,RO,1616509090
137,Cravo Norte,6.3017,-70.2041,86.61,55,95,4.07,CO,1616509091
138,Norden,53.6,7.2,50.0,68,11,8.9,DE,1616509091
139,Māyakonda,14.2833,76.0833,88.99,20,53,11.01,IN,1616509091
140,Chui,-33.6971,-53.4616,71.89,67,36,5.3,UY,1616509013
141,Normandin,48.8333,-72.5321,50.0,70,100,5.75,CA,1616509092
142,Marsabit,2.3284,37.9899,82.42,30,71,15.52,KE,1616509092
143,Yar-Sale,66.8333,70.8333,24.17,96,100,10.42,RU,1616509093
144,Alofi,-19.0595,-169.9187,78.8,94,75,5.75,NU,1616509093
145,Altay,47.8667,88.1167,37.94,56,100,7.74,CN,1616509093
146,Chengde,40.9725,117.9361,52.72,31,100,2.39,CN,1616509094
147,Crib Point,-38.35,145.2,64.0,95,100,9.13,AU,1616509094
148,Laguna,38.421,-121.4238,48.0,53,1,12.66,US,1616509094
149,Fare,-16.7,-151.0167,82.8,74,7,17.0,PF,1616509095
150,Guarapari,-20.6667,-40.4975,86.0,70,3,5.66,BR,1616509095
151,Sur,22.5667,59.5289,83.03,46,0,10.6,OM,1616509095
152,Derzhavīnsk,51.1,66.3167,13.82,95,47,8.41,KZ,1616509096
153,Mahébourg,-20.4081,57.7,82.4,78,40,6.91,MU,1616508984
154,Vanimo,-2.6741,141.3028,79.3,84,100,2.84,PG,1616509096
155,Nālūt,30.3333,10.85,61.56,25,1,15.84,LY,1616509097
156,Fortuna,40.5982,-124.1573,39.99,87,1,9.22,US,1616508881
157,Havelock,34.8791,-76.9013,57.99,100,90,10.36,US,1616509097
158,Ambalavao,-21.8333,46.9333,73.31,85,89,0.76,MG,1616509097
159,San-Pédro,4.7485,-6.6363,85.75,64,84,11.81,CI,1616509098
160,Egvekinot,66.3167,-179.1667,3.22,96,100,5.64,RU,1616509098
161,Diffa,13.3154,12.6113,105.66,6,27,10.49,NE,1616509098
162,Sioux Lookout,50.1001,-91.917,26.6,80,75,2.3,CA,1616509099
163,Praia,14.9215,-23.5087,75.2,57,20,20.71,CV,1616509035
164,Omsukchan,62.5333,155.8,2.97,95,100,6.96,RU,1616509099
165,Labuhan,-6.8844,112.2051,80.11,82,89,7.52,ID,1616509100
166,Gizo Government Station,-8.103,156.8419,82.78,76,82,5.82,SB,1616509100
167,Lagoa,39.05,-27.9833,54.81,61,100,15.52,PT,1616509100
168,Tacarigua,10.0862,-67.9198,83.26,56,75,1.19,VE,1616509100
169,Arroyo de la Encomienda,41.6096,-4.7969,63.0,23,0,5.75,ES,1616509101
170,Praia da Vitória,38.7333,-27.0667,59.0,67,75,14.63,PT,1616509101
171,Poum,-20.2333,164.0167,78.51,74,98,14.2,NC,1616509102
172,Kalemie,-5.9475,29.1947,79.3,65,11,8.39,CD,1616509102
173,Ostrovnoy,68.0531,39.5131,30.13,86,100,22.84,RU,1616509024
174,Codrington,-38.2667,141.9667,61.34,91,100,14.92,AU,1616509102
175,Banda Aceh,5.5577,95.3222,81.21,74,87,10.54,ID,1616509103
176,Isangel,-19.55,169.2667,75.27,81,99,9.69,VU,1616509103
177,Cassilândia,-19.1133,-51.7342,88.66,44,72,3.83,BR,1616509103
178,Mount Gambier,-37.8333,140.7667,60.8,100,90,9.22,AU,1616508883
179,Tuatapere,-46.1333,167.6833,54.0,98,100,4.43,NZ,1616509104
180,Hammerfest,70.6634,23.6821,33.8,86,75,35.68,NO,1616509104
181,Narsaq,60.9167,-46.05,21.2,42,1,8.05,GL,1616509105
182,Nísia Floresta,-6.0911,-35.2086,86.0,66,75,12.66,BR,1616509105
183,Itoman,26.1247,127.6694,64.4,55,20,6.91,JP,1616509003
184,Deputatsky,69.3,139.9,-18.29,95,100,5.26,RU,1616509105
185,Fareydūnshahr,32.941,50.121,50.5,53,98,7.29,IR,1616509106
186,Grand Gaube,-20.0064,57.6608,82.99,79,9,4.0,MU,1616509106
187,Shenjiamen,29.9576,122.298,53.67,73,100,15.03,CN,1616509107
188,Aylmer,42.7668,-80.983,53.01,37,75,8.05,CA,1616509107
189,St. George's,12.0564,-61.7485,82.4,65,20,23.02,GD,1616508848
190,Calama,-22.4667,-68.9333,66.2,20,0,8.05,CL,1616509108
191,Basqal,40.7552,48.391,53.6,76,90,4.61,AZ,1616509108
192,Saint Paul Harbor,57.79,-152.4072,33.8,75,90,11.5,US,1616509005
193,Salalah,17.0151,54.0924,86.0,54,0,5.75,OM,1616509109
194,Flin Flon,54.7682,-101.865,-5.8,59,1,9.22,CA,1616509109
195,Poole,50.7167,-2.0,54.0,66,40,10.36,GB,1616508904
196,George Town,5.4112,100.3354,80.01,94,40,4.21,MY,1616508911
197,Baker City,44.7749,-117.8344,30.2,69,20,13.8,US,1616509110
198,Brazzaville,-4.2658,15.2832,87.8,66,40,2.3,CG,1616509110
199,Khatanga,71.9667,102.5,-13.88,93,100,3.74,RU,1616508984
200,Houston,29.7633,-95.3633,64.4,94,1,9.22,US,1616508857
201,Yārāda,17.65,83.2667,84.2,54,0,5.75,IN,1616509012
202,Oddur,4.1213,43.8894,94.1,8,98,17.16,SO,1616509111
203,Geraldton,-28.7667,114.6,68.0,60,0,18.41,AU,1616509111
204,Ancud,-41.8697,-73.8203,60.01,100,75,6.91,CL,1616509111
205,Sola,-13.8833,167.55,80.73,70,15,5.5,VU,1616509002
206,Vao,-22.6667,167.4833,75.2,69,100,15.21,NC,1616509112
207,Portland,45.5234,-122.6762,39.0,80,75,1.79,US,1616509004
208,Makkah al Mukarramah,21.4267,39.8261,94.64,14,0,27.45,SA,1616509112
209,Raudeberg,61.9875,5.1352,51.8,87,75,18.41,NO,1616509113
210,Salem,11.65,78.1667,85.1,40,46,8.72,IN,1616508861
211,Rawson,-43.3002,-65.1023,80.08,24,86,21.7,AR,1616509113
212,Anadyr,64.75,177.4833,21.2,93,90,29.08,RU,1616509113
213,Ulaangom,49.9811,92.0667,10.56,88,82,5.1,MN,1616509114
214,La Rioja,42.25,-2.5,66.2,20,0,6.91,ES,1616509114
215,Saskylakh,71.9167,114.0833,-36.11,99,36,5.19,RU,1616508987
216,Dikson,73.5069,80.5464,-22.74,90,69,7.07,RU,1616509115
217,Mil'kovo,54.7167,158.6167,17.67,73,17,11.72,RU,1616509115
218,Svetlaya,46.5389,138.3297,31.6,85,11,7.81,RU,1616509115
219,Te Anau,-45.4167,167.7167,53.4,92,99,1.05,NZ,1616509116
220,La Libertad,-2.2333,-80.9,78.8,78,0,4.61,EC,1616509116
221,Bozoum,6.3193,16.3799,85.3,46,93,2.17,CF,1616509116
222,Scottsbluff,41.8666,-103.6672,30.99,93,1,9.22,US,1616509085
223,Bogorodskoye,56.55,37.8833,30.33,75,100,7.09,RU,1616509010
224,Los Llanos de Aridane,28.6585,-17.9182,68.0,52,20,9.22,ES,1616509117
225,Tabas,33.5959,56.9244,78.37,11,84,4.41,IR,1616509117
226,Coyhaique,-45.5752,-72.0662,53.6,71,75,3.44,CL,1616509087
227,Dale,38.1689,-86.99,60.8,51,75,12.66,US,1616509118
228,Khovd,48.0056,91.6419,36.64,28,47,2.17,MN,1616509118
229,Zhuhai,22.2769,113.5678,68.0,55,20,10.36,CN,1616509119
230,Muzaffarnagar,29.4667,77.6833,77.54,28,100,5.86,IN,1616509119
231,Kachīry,53.0675,76.1036,30.02,97,100,19.08,KZ,1616509119
232,Brainerd,46.358,-94.2008,41.0,60,90,6.91,US,1616509120
233,Namatanai,-3.6667,152.4333,79.27,84,100,5.17,PG,1616509120
234,Moose Factory,51.2585,-80.6094,30.2,86,90,6.91,CA,1616509120
235,Meulaboh,4.1363,96.1285,79.88,79,99,0.34,ID,1616509120
236,Saraipali,21.3333,83.0,89.26,19,7,8.08,IN,1616509121
237,Oni,42.5794,43.4425,47.48,95,100,6.64,GE,1616509121
238,Cervo,43.6702,-7.4101,71.01,28,0,5.99,ES,1616509121
239,Yuanping,38.7153,112.7575,45.86,50,3,3.67,CN,1616509122
240,Dhāna,23.75,78.85,81.99,28,77,9.13,IN,1616509122
241,Soller,39.7662,2.7152,63.0,67,20,13.8,ES,1616509122
242,Jacmel,18.2342,-72.5347,77.0,83,40,11.5,HT,1616509123
243,Cayenne,4.9333,-52.3333,78.8,94,75,4.61,GF,1616508915
244,Yokadouma,3.5167,15.05,91.98,37,100,1.59,CM,1616509123
245,Nuuk,64.1835,-51.7216,10.4,67,75,9.22,GL,1616509124
246,Lamar,33.6668,-95.5836,52.0,71,1,17.27,US,1616509124
247,Nanortalik,60.1432,-45.2371,24.55,60,5,14.56,GL,1616509124
248,Jianning,27.8333,113.15,50.0,81,0,2.24,CN,1616509125
249,Shimoda,34.6667,138.95,48.0,68,0,1.99,JP,1616509125
250,Mount Isa,-20.7333,139.5,77.0,83,100,6.91,AU,1616509125
251,Bethel,41.3712,-73.414,50.0,57,1,0.92,US,1616508757
252,Hobyo,5.3505,48.5268,82.11,54,8,15.88,SO,1616509126
253,Yulara,-25.2406,130.9889,73.4,78,41,8.05,AU,1616509126
254,Thunder Bay,48.4001,-89.3168,35.01,93,90,3.44,CA,1616508914
255,Bitung,1.4451,125.1824,77.0,94,20,2.3,ID,1616509126
256,Bathsheba,13.2167,-59.5167,84.2,48,40,24.16,BB,1616509127
257,Murgab,37.4966,61.9714,68.0,45,0,11.5,TM,1616509127
258,Tual,-5.6667,132.75,82.83,74,81,4.92,ID,1616509127
259,Saint-Joseph,-21.3667,55.6167,82.4,74,20,2.3,RE,1616509128
260,Cairns,-16.9167,145.7667,80.6,78,90,4.61,AU,1616509128
261,Katangli,51.7102,143.2326,5.95,90,97,22.1,RU,1616509128
262,Pitimbu,-7.4706,-34.8086,86.0,66,75,11.5,BR,1616509129
263,Viedma,-40.8135,-62.9967,77.09,32,10,17.85,AR,1616509129
264,Kargasok,59.0556,80.8572,12.99,94,42,1.77,RU,1616509129
265,Aklavik,68.2191,-135.0107,-5.8,71,89,10.36,CA,1616509130
266,Beipiao,41.7919,120.7792,49.37,25,100,6.93,CN,1616509130
267,Constitución,-35.3333,-72.4167,65.32,56,0,9.31,CL,1616509130
268,Malazgirt,39.1427,42.5401,42.85,89,100,9.28,TR,1616509131
269,Bambous Virieux,-20.3428,57.7575,82.99,78,40,6.91,MU,1616509131
270,Jumla,29.2747,82.1838,47.61,69,83,6.24,NP,1616508906
271,Nishihara,26.1842,127.7558,64.4,55,20,6.91,JP,1616509132
272,Faya,18.3851,42.4509,77.0,47,0,11.5,SA,1616509132
273,Kavieng,-2.5744,150.7967,80.74,80,99,7.07,PG,1616509001
274,Mayumba,-3.432,10.6554,82.62,67,100,5.3,GA,1616509132
275,Bāndarban,22.1965,92.2262,87.8,40,0,2.21,BD,1616509133
276,Vestmannaeyjar,63.4427,-20.2734,35.6,80,75,3.44,IS,1616509133
277,Ciudad Bolivar,8.1222,-63.5497,86.22,53,97,11.83,VE,1616509133
278,Murmino,54.6036,40.0544,32.58,85,100,8.95,RU,1616509134
279,Sirte,31.2089,16.5887,63.14,42,14,24.32,LY,1616509134
280,Sirsi,14.6167,74.85,76.84,75,17,6.93,IN,1616508972
281,Nakhon Si Thammarat,8.25,100.0,82.4,89,20,2.3,TH,1616509135
282,Tōbetsu,43.2169,141.5169,39.99,66,100,11.39,JP,1616509135
283,Launceston,-41.45,147.1667,62.01,88,90,11.5,AU,1616509073
284,Plainview,40.7765,-73.4673,50.0,87,20,6.91,US,1616509135
285,North Bend,43.4065,-124.2243,37.4,93,90,5.75,US,1616508938
286,Kopayhorod,48.8592,27.7969,35.01,54,100,1.99,UA,1616509136
287,Langarūd,37.197,50.1535,53.6,100,90,4.61,IR,1616509137
288,Homer,59.6425,-151.5483,28.0,80,75,4.65,US,1616509137
289,Teya,60.3778,92.6267,9.03,98,96,2.62,RU,1616509137
290,Linxia Chengguanzhen,35.6003,103.2064,50.76,21,25,3.04,CN,1616509137
291,Acaraú,-2.8856,-40.12,82.53,73,32,7.99,BR,1616509138
292,Rocha,-34.4833,-54.3333,65.93,85,91,5.57,UY,1616509138
293,Nha Trang,12.25,109.1833,77.0,83,40,11.5,VN,1616508992
294,Aleksandrov Gay,50.147,48.5704,35.37,85,100,13.78,RU,1616509138
295,Coahuayana Viejo,18.7333,-103.6833,69.8,46,1,2.82,MX,1616509139
296,Shuiji,27.4214,118.345,55.92,79,100,1.86,CN,1616509139
297,Husavik,66.0449,-17.3389,39.2,45,75,10.36,IS,1616509139
298,Il’inskiy,55.619,38.1182,36.0,55,75,8.95,RU,1616509140
299,Kavaratti,10.5669,72.642,83.95,68,0,5.84,IN,1616509140
300,Artyom,40.4723,50.333,51.8,82,0,11.5,AZ,1616509140
301,Palmer,42.1584,-72.3287,51.01,70,20,2.01,US,1616509141
302,Esperance,-33.8667,121.9,59.0,67,90,3.44,AU,1616509141
303,Tucupita,9.0622,-62.051,83.97,65,49,7.36,VE,1616509141
304,Basco,20.4487,121.9702,73.42,75,100,23.6,PH,1616509142
305,Hay River,60.8156,-115.7999,-0.4,78,100,5.75,CA,1616508903
306,Port Lincoln,-34.7333,135.8667,61.77,89,87,7.96,AU,1616509142
307,Orlik,52.5178,99.825,17.2,84,100,4.16,RU,1616509142
308,At-Bashi,41.1702,75.8106,32.85,83,100,3.83,KG,1616509143
309,Nogliki,51.8333,143.1667,5.72,88,99,21.92,RU,1616509143
310,Saldanha,-33.0117,17.9442,96.8,17,18,11.5,ZA,1616508992
311,Szentlőrinc,46.0402,17.9872,48.2,34,0,13.8,HU,1616509144
312,Saint-Augustin,51.226,-58.6502,36.34,99,77,6.98,CA,1616508711
313,Hirara,24.8,125.2833,66.81,61,48,17.34,JP,1616509144
314,Bonthe,7.5264,-12.505,87.67,55,34,12.06,SL,1616509144
315,Clyde River,70.4692,-68.5914,-18.4,63,1,17.27,CA,1616508747
316,Hualmay,-11.0964,-77.6139,72.1,77,97,7.72,PE,1616509145
317,Ippy,6.2679,21.2247,94.26,29,100,6.24,CF,1616509145
318,Okahandja,-21.9833,16.9167,75.0,64,85,5.99,NA,1616509145
319,Butembo,0.15,29.2833,70.18,68,87,2.8,CD,1616509146
320,Svolvær,68.2342,14.5683,42.01,65,75,17.27,NO,1616509146
321,Lembeni,-3.7833,37.6167,86.94,33,24,13.56,TZ,1616509146
322,Pokhara,28.2333,83.9833,73.6,22,96,6.85,NP,1616509147
323,Whitehorse,60.7161,-135.0538,14.0,79,90,14.97,CA,1616508903
324,Gold Coast,-28.0,153.4333,75.2,94,90,11.5,AU,1616509147
325,Atar,20.5169,-13.0499,94.19,6,0,9.33,MR,1616509148
326,Lata,40.1629,-8.3327,73.0,42,1,7.31,PT,1616509148
327,Bengkulu,-3.8004,102.2655,77.41,86,100,2.46,ID,1616508987
328,Mackenzie,55.2999,-123.1698,26.6,86,40,5.75,CA,1616509149
329,Dobrić,44.7019,19.5814,51.01,34,86,12.1,RS,1616509149
330,Guerrero Negro,27.9769,-114.0611,54.59,82,60,14.2,MX,1616509149
331,Brae,60.3964,-1.353,48.2,76,75,19.57,GB,1616509150
332,Wawa,9.9022,4.4192,96.75,33,100,4.7,NG,1616509150
333,Caravelas,-17.7125,-39.2481,85.78,57,0,6.58,BR,1616509150
334,Bajil,15.0584,43.2851,92.46,26,1,11.52,YE,1616509151
335,Berdigestyakh,62.0989,126.6992,-12.19,91,100,9.91,RU,1616509151
336,Byron Bay,-28.65,153.6167,73.4,94,40,5.75,AU,1616509040
337,Mikhaylovka,50.06,43.2379,33.01,94,100,5.99,RU,1616509031
338,Haines Junction,60.7522,-137.5108,8.6,78,100,1.19,CA,1616509151
339,Pangnirtung,66.1451,-65.7125,-27.4,62,20,6.91,CA,1616509152
340,Bay City,43.5945,-83.8889,55.4,62,75,3.44,US,1616509152
341,Cumbum,9.7333,77.3,79.95,54,36,1.77,IN,1616509152
342,Mahibadhoo,3.7833,72.9667,83.43,66,33,3.87,MV,1616509153
343,Santa Cruz del Sur,20.7147,-77.9956,78.64,65,5,9.33,CU,1616509153
344,Wonogiri,-7.8144,110.9259,76.39,90,100,3.85,ID,1616509153
345,Marawi,7.9986,124.2928,79.0,87,79,5.01,PH,1616509154
346,Port-Gentil,-0.7193,8.7815,87.8,66,20,9.22,GA,1616509154
347,Yazykovo,55.2199,56.1353,31.08,91,100,12.62,RU,1616509154
348,San Patricio,28.017,-97.5169,70.0,88,40,8.05,US,1616508994
349,Faanui,-16.4833,-151.75,83.07,74,17,16.49,PF,1616509016
350,San Andrés,12.5847,-81.7006,82.4,69,20,10.36,CO,1616509155
351,Fort Nelson,58.8053,-122.7002,3.2,85,90,4.61,CA,1616509155
352,Gaoual,11.75,-13.2,100.15,15,94,5.75,GN,1616509155
353,Kearney,40.6995,-99.0815,41.0,100,90,21.85,US,1616509156
354,Romny,50.751,33.4747,34.56,44,100,11.12,UA,1616509156
355,Strezhevoy,60.7333,77.5889,24.8,63,0,6.71,RU,1616509157
356,Bobrovka,54.047,61.7455,24.78,91,29,7.63,RU,1616509157
357,Ilulissat,69.2167,-51.1,-4.0,92,90,20.71,GL,1616509019
358,Victor Harbor,-35.5667,138.6167,66.0,77,69,8.88,AU,1616509158
359,Novoagansk,61.9449,76.6625,25.88,92,100,10.09,RU,1616509158
360,Haukipudas,65.1765,25.3523,41.0,75,0,13.8,FI,1616509158
361,Acarí,-15.4311,-74.6158,76.86,64,97,4.76,PE,1616509158
362,Labuan,5.2767,115.2417,78.8,100,20,5.55,MY,1616509159
363,Ambon City,-3.6954,128.1814,78.8,89,20,9.22,ID,1616508855
364,George Town,5.4112,100.3354,80.6,83,40,4.21,MY,1616509081
365,Bac Lieu,9.285,105.7244,81.72,76,100,24.4,VN,1616508953
366,Mehamn,71.0357,27.8492,35.6,75,40,32.21,NO,1616509159
367,Chumikan,54.7183,135.315,0.0,69,11,15.66,RU,1616509160
368,Frutigen,46.5878,7.6475,52.0,43,0,4.61,CH,1616509160
369,Lavrentiya,65.5833,-171.0,0.95,97,100,5.53,RU,1616509007
370,Bauska,56.4075,24.1906,44.6,61,90,4.61,LV,1616509160
371,Uddevalla,58.3478,11.9424,46.4,71,0,16.11,SE,1616509161
372,Lityn,49.3251,28.0809,33.8,51,100,11.18,UA,1616509161
373,Joensuu,62.6012,29.7632,39.2,65,0,9.22,FI,1616509162
374,Vila Velha,-20.3297,-40.2925,86.0,78,20,9.22,BR,1616509162
375,Keti Bandar,24.1447,67.4497,80.24,56,0,12.37,PK,1616509162
376,Prieska,-29.6641,22.7474,81.46,37,81,6.13,ZA,1616509163
377,Talcahuano,-36.7167,-73.1167,62.6,63,0,9.22,CL,1616509163
378,Berlevåg,70.8578,29.0864,35.6,75,40,32.21,NO,1616509163
379,Vallenar,-28.5708,-70.7581,73.47,38,0,3.11,CL,1616509164
380,Pangkalanbuun,-2.6833,111.6167,75.29,96,100,0.58,ID,1616509164
381,‘Ewa Beach,21.3156,-158.0072,68.0,94,1,4.61,US,1616509044
382,Cap Malheureux,-19.9842,57.6142,82.99,79,11,4.0,MU,1616509164
383,Yarmouth,41.7057,-70.2286,51.8,71,1,8.05,US,1616509165
384,Tongling,30.95,117.7833,55.45,64,100,10.67,CN,1616509165
385,Rāmhormoz,31.28,49.6035,89.6,23,0,13.8,IR,1616509165
386,Carpinteria,34.3989,-119.5185,48.0,75,1,5.7,US,1616509166
387,Pangody,65.85,74.4859,23.09,94,100,16.02,RU,1616509166
388,Avera,33.194,-82.5271,57.2,82,1,5.75,US,1616509167
389,Evensk,61.95,159.2333,21.65,96,100,5.03,RU,1616509167
390,Nekrasovskoye,57.6766,40.3657,33.8,55,0,6.71,RU,1616509167
391,College,64.8569,-147.8028,12.2,73,90,2.53,US,1616509007
392,Port Hardy,50.6996,-127.4199,42.8,87,90,4.61,CA,1616508903
393,Nacala,-14.5428,40.6728,84.2,70,75,11.5,MZ,1616509168
394,Anloga,5.7947,0.8973,87.8,62,20,14.97,GH,1616509168
395,Valdez,1.2492,-78.9831,77.4,78,90,1.45,EC,1616509168
396,Qena,26.1615,32.7183,109.4,12,7,17.27,EG,1616509169
397,Chernyshevskiy,63.0128,112.4714,-6.84,99,100,0.78,RU,1616509169
398,Matagami,49.7502,-77.6328,35.6,75,1,4.61,CA,1616509170
399,Olecko,54.0337,22.507,39.34,80,100,5.32,PL,1616509170
400,Provideniya,64.3833,-173.3,9.57,96,100,7.23,RU,1616509170
401,Roald,62.5833,6.1333,50.0,71,75,18.41,NO,1616509034
402,Awjilah,29.1081,21.2869,69.87,18,0,25.05,LY,1616509171
403,Maniitsoq,65.4167,-52.9,0.68,78,37,6.93,GL,1616509003
404,Apatou,5.155,-54.3472,76.87,94,95,3.8,GF,1616509171
405,Port Hedland,-20.3167,118.5667,78.8,73,50,6.91,AU,1616508915
406,Kropotkin,45.4375,40.5756,42.01,76,100,10.45,RU,1616509171
407,Tura,25.5198,90.2201,77.4,17,0,2.71,IN,1616509172
408,Kiunga,-6.1219,141.2906,74.44,99,100,2.64,PG,1616509172
409,Zhicheng,30.2956,111.5047,53.01,77,0,4.85,CN,1616509172
410,Dongsheng,39.8161,109.9776,43.72,25,5,7.7,CN,1616509173
411,Mahajanga,-15.7167,46.3167,84.2,74,20,6.91,MG,1616509173
412,Halifax,44.6453,-63.5724,48.0,87,90,5.75,CA,1616509174
413,Kismayo,-0.3582,42.5454,83.44,70,35,16.44,SO,1616509174
414,Rio Grande,-32.035,-52.0986,75.2,78,75,5.75,BR,1616509174
415,Batamshinskiy,50.5594,58.2747,26.6,80,0,6.71,KZ,1616509175
416,Rock Sound,24.9,-76.2,71.78,75,18,1.63,BS,1616509175
417,Lázaro Cárdenas,17.9583,-102.2,71.08,56,0,3.71,MX,1616509175
418,Gao,16.6362,1.637,100.67,8,95,15.17,ML,1616509176
419,Batagay-Alyta,67.8006,130.4114,-13.2,95,100,3.62,RU,1616509176
420,Dunedin,-45.8742,170.5036,55.0,92,100,1.32,NZ,1616509176
421,Merauke,-8.4667,140.3333,81.48,78,100,5.66,ID,1616509177
422,Lorengau,-2.0226,147.2712,80.58,76,98,2.3,PG,1616509177
423,Tessalit,20.1986,1.0114,87.33,6,29,14.97,ML,1616509177
424,Aswān,24.0934,32.907,104.58,7,0,8.21,EG,1616509178
425,Dakoro,14.5106,6.765,104.7,7,27,9.24,NE,1616509178
426,Kiryat Gat,31.61,34.7642,77.0,47,100,14.97,IL,1616509170
427,Najrān,17.4924,44.1277,89.6,10,0,11.5,SA,1616508996
428,São Miguel do Araguaia,-13.275,-50.1628,82.35,68,100,4.9,BR,1616509178
429,Mahon,39.8885,4.2658,60.8,59,20,10.36,ES,1616509179
430,Bud,39.447,-86.1758,55.0,67,100,10.16,US,1616509179
431,Buriti,-22.9302,-45.3881,78.8,73,40,2.3,BR,1616509179
432,Tilichiki,60.4667,166.1,20.77,97,100,5.19,RU,1616509180
433,Camacha,33.0833,-16.3333,64.4,52,40,13.8,PT,1616509180
434,Smithers,54.7804,-127.1743,32.0,80,90,2.62,CA,1616508903
435,Ranong,9.9658,98.6348,84.2,70,20,9.22,TH,1616509180
436,Aykhal,66.0,111.5,-6.52,99,100,4.63,RU,1616509020
437,Hasaki,35.7333,140.8333,44.6,87,20,3.44,JP,1616509025
438,Witu,-2.3889,40.4382,87.8,70,1,12.66,KE,1616509181
439,Parry Sound,45.3501,-80.033,53.6,32,100,5.08,CA,1616509029
440,Gulariyā,28.2333,81.3333,88.52,15,74,12.62,NP,1616509181
441,Gander,48.9682,-54.5906,50.0,32,20,13.8,CA,1616509182
442,Emerald,-23.5333,148.1667,78.8,89,75,3.44,AU,1616509182
443,Lakselv,70.0513,24.9718,35.6,75,75,31.07,NO,1616509182
444,Comodoro Rivadavia,-45.8667,-67.5,71.6,30,0,18.41,AR,1616509158
445,Quelimane,-17.8786,36.8883,87.8,62,75,3.44,MZ,1616509183
446,Adrar,20.5022,-10.0711,90.23,9,3,10.74,MR,1616509183
447,Sinnamary,5.3833,-52.95,78.01,87,98,11.56,GF,1616509184
448,Pochutla,15.7432,-96.4661,79.0,73,1,11.5,MX,1616509184
449,Elliot Lake,46.3834,-82.6331,44.6,70,90,3.44,CA,1616509185
450,Tūkrah,32.5341,20.5791,58.91,59,17,33.89,LY,1616509185
451,Honningsvåg,70.9821,25.9704,35.6,75,40,34.52,NO,1616509185
452,Kidal,18.4411,1.4078,96.17,5,78,18.28,ML,1616509185
453,Cockburn Town,21.4612,-71.1419,77.0,79,5,15.5,TC,1616509186
454,Xunchang,28.4543,104.715,59.34,61,5,3.2,CN,1616509186
455,Constantine,36.365,6.6147,53.6,50,40,14.97,DZ,1616509186
456,DeLand,29.0283,-81.3031,69.01,88,90,3.44,US,1616509187
457,Saint-Paul,-21.0096,55.2707,82.4,78,75,8.05,RE,1616509187
458,Oşeşti,46.7667,27.4667,39.2,93,75,13.8,RO,1616509188
459,Gladstone,-23.85,151.25,78.8,83,90,9.22,AU,1616509188
460,Huaihua,27.5494,109.9592,55.11,72,1,1.59,CN,1616509188
461,Ubari,26.5921,12.7805,69.85,13,0,16.58,LY,1616509188
462,Dingle,10.9995,122.6711,76.82,87,100,8.79,PH,1616509026
463,Gainesville,29.6516,-82.3248,64.4,72,75,6.91,US,1616509152
464,Auchi,7.0667,6.2667,86.92,52,100,4.09,NG,1616509189
465,Padang,-0.9492,100.3543,75.2,100,75,3.36,ID,1616509189
466,Calbuco,-41.768,-73.1273,53.6,100,75,4.61,CL,1616509190
467,Rødbyhavn,54.6544,11.352,45.0,100,3,10.29,DK,1616509190
468,Luebo,-5.35,21.4167,90.0,46,63,1.57,CD,1616509190
469,Rodolfo Sánchez Taboada,31.7167,-116.5667,54.0,86,100,5.01,MX,1616509190
470,Touros,-5.1989,-35.4608,86.0,58,40,11.5,BR,1616509017
471,Antofagasta,-23.65,-70.4,66.2,77,0,5.75,CL,1616509054
472,Petropavlovsk-Kamchatskiy,53.0452,158.6483,26.6,63,75,4.47,RU,1616509191
473,Souillac,-20.5167,57.5167,82.4,78,40,6.91,MU,1616508988
474,Torbay,47.6666,-52.7314,50.0,40,1,25.32,CA,1616509033
475,Shakawe,-18.3667,21.85,82.42,49,99,4.07,BW,1616509191
476,Vilyuysk,63.7553,121.6247,-27.9,100,54,3.74,RU,1616509192
477,Barra de Tecoanapa,16.5167,-98.75,75.02,58,5,3.29,MX,1616509192
478,Yashan,22.1975,109.9419,64.08,66,100,3.6,CN,1616509192
479,Loa Janan,-0.583,117.095,73.98,97,99,1.1,ID,1616509193
480,Doha,25.2867,51.5333,90.0,29,0,8.05,QA,1616509193
481,Egyek,47.6333,20.9,46.4,39,0,10.36,HU,1616509193
482,Isiro,2.7739,27.616,87.78,43,100,1.61,CD,1616509194
483,Sørland,67.667,12.6934,42.8,70,75,19.57,NO,1616509194
484,Kolyubakino,55.668,36.5323,34.0,55,75,11.18,RU,1616509194
485,Port Augusta,-32.5,137.7667,64.4,82,40,8.05,AU,1616509195
486,Makubetsu,45.3714,141.8211,40.69,83,96,28.43,JP,1616509022
487,Muravlenko,63.7898,74.523,23.67,88,100,17.67,RU,1616509195
488,Flinders,-34.5833,150.8552,66.99,98,19,1.01,AU,1616509195
489,Segovia,41.1667,-4.0,62.6,29,0,2.3,ES,1616509196
490,Ribeira Brava,32.65,-17.0667,66.2,45,40,8.05,PT,1616509196
491,Nanning,22.8167,108.3167,62.6,63,0,4.47,CN,1616509196
492,Zhaotong,27.3167,103.7167,50.29,71,11,6.67,CN,1616509197
493,Visby,57.6409,18.296,50.0,50,0,10.36,SE,1616509197
494,Linjiang,41.8069,126.9078,31.01,93,96,1.68,CN,1616509197
495,Taupo,-38.6833,176.0833,46.99,88,3,2.06,NZ,1616509198
496,Seybaplaya,19.65,-90.6667,77.0,73,1,16.11,MX,1616509198
497,Road Town,18.4167,-64.6167,82.4,65,20,9.22,VG,1616509154
498,Batemans Bay,-35.7167,150.1833,64.0,98,33,5.75,AU,1616509199
499,Pahrump,36.2083,-115.9839,48.99,56,100,6.69,US,1616509051
500,Arlit,18.7369,7.3853,99.73,4,50,13.91,NE,1616509035
501,Mackay,-21.15,149.2,78.8,89,75,3.44,AU,1616509199
502,Porbandar,21.6422,69.6093,81.19,64,0,14.41,IN,1616508924
503,Malé,4.1748,73.5089,86.0,79,75,5.75,MV,1616509200
504,Kieta,-6.2167,155.6333,79.18,85,98,3.13,PG,1616509200
505,Kapit,2.0167,112.9333,74.1,99,100,2.19,MY,1616509200
506,Seoul,37.5683,126.9778,46.4,61,0,4.61,KR,1616509201
507,Passa Quatro,-22.3903,-44.9667,78.8,73,75,3.44,BR,1616509201
508,Taoudenni,22.6783,-3.9836,83.95,8,0,13.98,ML,1616509202
509,Nizwá,22.9333,57.5333,89.42,8,0,7.65,OM,1616509158
510,Barão de Melgaço,-16.1944,-55.9675,78.8,69,75,5.75,BR,1616509204
511,Jizan,17.3333,42.6667,89.6,51,0,13.8,SA,1616509205
512,Bagdarin,54.4333,113.6,12.34,89,61,5.14,RU,1616509205
513,Harper,4.375,-7.7169,84.63,69,94,13.13,LR,1616509205
514,Kholodnyy,62.7167,147.95,-4.94,98,100,3.56,RU,1616509206
515,Imbituba,-28.24,-48.6703,80.6,74,75,4.61,BR,1616509206
516,Jati,24.3539,68.2671,84.69,36,0,15.19,PK,1616509206
517,Leningradskiy,69.3833,178.4167,-7.96,92,100,7.34,RU,1616508985
518,Puerto Escondido,15.85,-97.0667,77.0,94,1,5.75,MX,1616509207
519,Mīzan Teferī,6.9833,35.5833,84.34,33,60,4.92,ET,1616509207
520,Zhuanghe,39.7008,122.9911,42.01,78,0,3.42,CN,1616509208
521,Alice Springs,-23.7,133.8833,69.8,88,75,6.91,AU,1616509208
522,Inndyr,67.0338,14.0276,42.01,81,75,25.32,NO,1616509208
523,Shaunavon,49.6501,-108.4181,23.0,93,100,17.27,CA,1616509209
524,Ullapool,57.8987,-5.1604,52.0,62,100,20.0,GB,1616509209
525,Porto-Novo,6.4965,2.6036,86.0,70,40,10.36,BJ,1616509209
526,Mutum,-19.8,-41.4383,84.09,65,8,2.15,BR,1616509210
527,San Jose,37.3394,-121.895,46.99,76,20,9.22,US,1616509210
528,Ponta Delgada,37.7333,-25.6667,55.4,88,75,18.41,PT,1616509210
529,Inyonga,-6.7167,32.0667,77.11,63,98,3.06,TZ,1616509210
530,Duluth,46.7833,-92.1066,39.99,81,90,11.5,US,1616508997
531,Broome,42.2506,-75.833,51.01,43,1,4.61,US,1616509211
532,Nanaimo,49.1663,-123.936,44.6,76,100,9.22,CA,1616509211
533,Susanville,40.4163,-120.653,30.2,69,1,5.75,US,1616509212
534,Dalvik,65.9702,-18.5286,39.2,45,75,10.36,IS,1616509212
535,Magdug,6.5476,126.0951,80.89,77,100,10.0,PH,1616509212
536,Olney,39.1532,-77.0669,55.99,54,75,3.44,US,1616509096
537,Harlingen,26.1906,-97.6961,71.01,100,90,8.05,US,1616509213
538,Viramgam,23.1225,72.0484,91.4,19,0,3.44,IN,1616509213
539,Port Macquarie,-31.4333,152.9167,69.8,100,75,4.61,AU,1616509214
540,Pangai,-19.8,-174.35,80.02,76,66,4.54,TO,1616509214
541,Luwuk,-0.9516,122.7875,78.53,86,97,1.28,ID,1616509214
542,La Ronge,55.1001,-105.2842,-4.0,65,10,9.22,CA,1616509215
543,Bilibino,68.0546,166.4372,4.69,92,100,5.5,RU,1616509215
544,Sept-Îles,50.2001,-66.3821,46.4,49,75,3.44,CA,1616509018
545,Mendi,-6.1761,143.6513,57.99,99,100,1.07,PG,1616509215
546,Rehoboth,-23.3167,17.0833,76.53,53,81,16.6,NA,1616509216
547,Zhoucheng,35.9122,116.3117,54.18,61,62,11.77,CN,1616509216
548,Ukiah,39.1502,-123.2078,36.0,80,1,3.29,US,1616509217
549,Haifa,32.8156,34.9892,80.6,39,100,18.41,IL,1616509217
550,Manta,-0.95,-80.7333,82.4,69,75,4.61,EC,1616508941
551,Champerico,14.3,-91.9167,75.2,83,0,6.22,GT,1616509218
552,South Shields,54.9986,-1.4323,52.0,57,75,16.11,GB,1616509218
553,Kostanay,53.1667,63.5833,19.4,86,0,8.95,KZ,1616509218
554,Province of Mantua,45.1667,10.7833,57.99,34,15,1.01,IT,1616509064
555,Heze,35.2431,115.4411,54.21,64,40,13.38,CN,1616509219
556,Deniliquin,-35.5333,144.9667,64.0,90,9,6.6,AU,1616509219
557,Shancheng,34.7953,116.0817,57.0,59,99,1.01,CN,1616509219
558,Bonanza,14.0289,-84.591,71.98,86,90,0.4,NI,1616509220
559,Black River,18.0264,-77.8487,81.0,69,20,4.61,JM,1616509220
560,Nelson Bay,-32.7167,152.15,69.8,100,90,9.22,AU,1616509220
561,Necochea,-38.5473,-58.7368,73.0,56,0,3.0,AR,1616509221
562,Eyl,7.9803,49.8164,81.64,48,3,16.42,SO,1616509221
563,Alekseyevsk,57.8406,108.3492,24.46,97,100,3.31,RU,1616509222
564,Coolum Beach,-26.5333,153.1,77.0,91,68,1.01,AU,1616509222
565,Onguday,50.75,86.15,29.98,80,77,3.4,RU,1616509222
566,Kibaya,-5.3,36.5667,73.62,57,83,7.9,TZ,1616509223
567,Ecoporanga,-18.3733,-40.8306,85.59,58,4,1.19,BR,1616509223
568,Bara,10.3744,10.7288,95.0,36,48,1.34,NG,1616509223
569,Heihe,50.2441,127.4902,19.4,45,0,2.24,CN,1616509224
570,La Santisima Trinidad,-14.8333,-64.9,78.8,83,75,8.05,BO,1616509224
571,Spearfish,44.4908,-103.8594,37.4,60,90,8.05,US,1616509225
572,Danville,36.586,-79.395,53.6,71,90,8.05,US,1616509225
573,Buin,-33.7333,-70.75,68.0,49,0,2.3,CL,1616509225
574,Oranjestad,12.524,-70.027,82.4,69,40,19.57,AW,1616509225
575,Montpelier,44.2601,-72.5754,48.99,52,1,3.44,US,1616509082
576,Kumul,42.8,93.45,52.21,26,34,3.27,CN,1616509226
577,Bubaque,11.2833,-15.8333,77.29,52,64,7.65,GW,1616509013
578,Borogontsy,62.6683,131.1683,-12.48,94,100,9.64,RU,1616509227
579,Campbell River,50.0163,-125.2446,34.0,100,75,3.44,CA,1616509200
580,Baykit,61.67,96.37,5.85,98,66,3.76,RU,1616509227
581,Nojorid,46.9833,21.8833,46.4,39,0,13.8,RO,1616509227
582,Sibolga,1.7427,98.7792,76.08,96,100,2.01,ID,1616509228
583,Yangi Marg`ilon,40.4272,71.7189,64.4,34,100,4.61,UZ,1616509018
584,Chapais,49.7834,-74.8492,37.4,75,90,2.55,CA,1616509228
585,Pacific Grove,36.6177,-121.9166,50.0,87,20,5.93,US,1616508987
586,Half Moon Bay,37.4636,-122.4286,48.2,81,1,10.36,US,1616508973
587,Roura,4.7263,-52.3274,79.0,94,75,4.61,GF,1616509228
588,Esim,4.8699,-2.2405,84.47,69,100,10.31,GH,1616509229
589,Mwinilunga,-11.7358,24.4293,76.46,68,25,3.09,ZM,1616509229
