,City,Lat,Lng,Max Temp,Humidity,Cloudiness,Wind Speed,Country,Date
0,Kariba,-16.5167,28.8,80.2,71,20,5.32,ZW,1616421723
1,Albany,42.6001,-73.9662,51.01,36,0,2.13,US,1616421666
2,Norman Wells,65.282,-126.8329,-22.0,76,40,2.3,CA,1616421649
3,Kushmurun,52.4503,64.6311,16.48,91,17,8.05,KZ,1616421724
4,Hermanus,-34.4187,19.2345,77.0,59,0,8.99,ZA,1616421673
5,Puerto Ayora,-0.7393,-90.3518,80.01,90,100,2.13,EC,1616421724
6,East London,-33.0153,27.9116,73.4,64,20,9.22,ZA,1616421724
7,Torbay,47.6666,-52.7314,42.8,56,40,18.41,CA,1616421725
8,Tocopilla,-22.092,-70.1979,72.86,66,84,7.92,CL,1616421725
9,Tiksi,71.6872,128.8694,-20.15,98,100,6.46,RU,1616421668
10,Punta Arenas,-53.15,-70.9167,55.4,67,0,16.11,CL,1616421725
11,Pevek,69.7008,170.3133,-22.27,89,0,4.07,RU,1616421726
12,Cape Town,-33.9258,18.4232,82.4,34,0,11.5,ZA,1616421451
13,Arraial do Cabo,-22.9661,-42.0278,86.0,62,0,12.66,BR,1616421726
14,Mar del Plata,-38.0023,-57.5575,62.6,67,20,3.44,AR,1616421474
15,São Filipe,14.8961,-24.4956,70.63,75,0,8.75,CV,1616421727
16,Ambilobe,-13.2,49.05,79.18,91,100,1.72,MG,1616421727
17,Hong Kong,22.2855,114.1577,66.0,61,13,1.01,HK,1616421466
18,Vila Franca do Campo,37.7167,-25.4333,60.8,67,75,9.22,PT,1616421676
19,Carnarvon,-24.8667,113.6333,78.8,78,0,18.41,AU,1616421728
20,Qaqortoq,60.7167,-46.0333,23.0,50,75,4.61,GL,1616421728
21,Mataura,-46.1927,168.8643,54.0,96,70,1.99,NZ,1616421728
22,Port Elizabeth,-33.918,25.5701,71.6,49,0,8.05,ZA,1616421729
23,Palembang,-2.9167,104.7458,80.6,78,40,6.91,ID,1616421729
24,Atar,20.5169,-13.0499,90.81,8,0,5.61,MR,1616421729
25,Mahibadhoo,3.7833,72.9667,83.86,69,100,8.48,MV,1616421730
26,Atuona,-9.8,-139.0333,79.99,75,90,18.7,PF,1616421730
27,Port Alfred,-33.5906,26.891,69.57,61,8,11.43,ZA,1616421730
28,Pleshanovo,52.8333,53.4833,28.4,93,99,10.76,RU,1616421731
29,Busselton,-33.65,115.3333,53.01,79,54,14.07,AU,1616421731
30,Nuevo Ideal,24.8875,-105.0728,52.57,35,0,7.09,MX,1616421731
31,Fortuna,40.5982,-124.1573,44.01,100,90,4.61,US,1616421732
32,Manosque,43.8288,5.7869,61.0,38,0,23.02,FR,1616421732
33,Khatanga,71.9667,102.5,-13.83,78,73,12.12,RU,1616421732
34,Katsuura,35.1333,140.3,48.99,51,88,20.49,JP,1616421733
35,Karratha,-20.7377,116.8463,83.21,57,10,14.61,AU,1616421733
36,Hilo,19.7297,-155.09,66.2,88,90,3.44,US,1616421209
37,Bethel,41.3712,-73.414,50.0,42,0,2.75,US,1616421660
38,Batticaloa,7.7102,81.6924,81.27,73,100,8.43,LK,1616421734
39,George Town,5.4112,100.3354,87.8,66,20,4.61,MY,1616421445
40,Butaritari,3.0707,172.7902,81.93,78,68,14.79,KI,1616421670
41,Rikitea,-23.1203,-134.9692,79.65,71,0,6.22,PF,1616421734
42,Avarua,-21.2078,-159.775,78.8,89,20,4.61,CK,1616421734
43,Clyde River,70.4692,-68.5914,-25.6,62,1,8.05,CA,1616421735
44,Comodoro Rivadavia,-45.8667,-67.5,68.0,42,0,13.8,AR,1616421735
45,Altamira,-3.2033,-52.2064,80.6,83,75,8.05,BR,1616421706
46,Susurluk,39.9136,28.1578,68.0,49,40,20.71,TR,1616421735
47,Suntar,62.1444,117.6319,-17.18,98,100,3.0,RU,1616421736
48,Hualmay,-11.0964,-77.6139,75.04,71,36,7.23,PE,1616421736
49,Kavaratti,10.5669,72.642,83.64,69,0,7.38,IN,1616421736
50,Iqaluit,63.7506,-68.5145,-13.0,64,1,17.27,CA,1616421737
51,Upernavik,72.7868,-56.1549,-6.93,90,100,2.01,GL,1616421737
52,Shingū,33.7333,135.9833,43.65,86,3,6.51,JP,1616421737
53,Oranjemund,-28.55,16.4333,72.77,55,0,12.46,NA,1616421738
54,Chui,-33.6971,-53.4616,71.15,75,38,10.63,UY,1616421738
55,Ilulissat,69.2167,-51.1,6.8,85,90,11.5,GL,1616421738
56,Kruisfontein,-34.0033,24.7314,73.0,56,0,10.0,ZA,1616421647
57,Tuy Hoa,13.0833,109.3,75.65,89,69,14.25,VN,1616421739
58,Hobart,-42.8794,147.3294,60.8,72,66,9.22,AU,1616421611
59,Nikolskoye,59.7035,30.7861,33.8,47,0,15.66,RU,1616421693
60,Hirara,24.8,125.2833,62.01,71,50,23.67,JP,1616421740
61,Dubbo,-32.25,148.6167,60.8,100,90,12.66,AU,1616421740
62,Petropavlovsk-Kamchatskiy,53.0452,158.6483,33.8,100,90,22.37,RU,1616421740
63,Cap Malheureux,-19.9842,57.6142,82.99,78,4,5.99,MU,1616421741
64,Taldan,53.6667,124.8,20.93,97,100,1.68,RU,1616421741
65,Avera,33.194,-82.5271,57.2,67,1,14.97,US,1616421741
66,Faanui,-16.4833,-151.75,82.47,78,9,12.62,PF,1616421742
67,New Norfolk,-42.7826,147.0587,60.01,68,65,2.01,AU,1616421682
68,Provideniya,64.3833,-173.3,-5.42,85,22,5.41,RU,1616421742
69,Vostok,46.4856,135.8833,18.75,95,92,5.86,RU,1616421743
70,Ushuaia,-54.8,-68.3,53.6,66,40,12.66,AR,1616421743
71,Isangel,-19.55,169.2667,75.67,88,17,10.22,VU,1616421743
72,Kapaa,22.0752,-159.319,71.6,68,75,16.11,US,1616421744
73,Benguela,-12.5763,13.4055,83.12,73,32,10.49,AO,1616421619
74,Baillif,16.0202,-61.7463,82.4,61,40,8.05,GP,1616421744
75,Gamba,-2.65,10.0,76.01,93,100,17.2,GA,1616421745
76,Bluff,-46.6,168.3333,54.0,96,86,1.99,NZ,1616421745
77,Tuktoyaktuk,69.4541,-133.0374,-22.0,76,1,10.36,CA,1616421745
78,Cienfuegos,22.1461,-80.4356,68.0,73,0,4.61,CU,1616421648
79,Tuatapere,-46.1333,167.6833,54.0,96,100,1.99,NZ,1616421746
80,Baruun-Urt,46.6806,113.2792,34.12,48,100,3.76,MN,1616421746
81,Airai,-8.9266,125.4092,62.78,93,94,1.16,TL,1616421746
82,Naze,28.3667,129.4833,53.15,68,100,19.46,JP,1616421747
83,Hithadhoo,-0.6,73.0833,84.16,72,75,10.09,MV,1616421747
84,Balkanabat,39.5108,54.3671,58.53,52,1,11.01,TM,1616421748
85,Mackenzie,55.2999,-123.1698,17.6,100,90,2.3,CA,1616421748
86,Dunedin,-45.8742,170.5036,55.0,89,55,1.01,NZ,1616421748
87,Zyryanka,65.75,150.85,-2.72,87,50,2.17,RU,1616421748
88,Barrow,71.2906,-156.7887,-20.2,69,1,13.8,US,1616421749
89,Kavieng,-2.5744,150.7967,82.42,77,80,6.49,PG,1616421749
90,Vila Velha,-20.3297,-40.2925,87.01,65,75,4.61,BR,1616421637
91,Bredasdorp,-34.5322,20.0403,77.0,47,0,20.71,ZA,1616421750
92,Blagoyevo,63.3667,47.9167,30.16,96,100,4.23,RU,1616421750
93,Raja,8.4596,25.678,96.28,29,100,2.24,SS,1616421750
94,Pisco,-13.7,-76.2167,69.8,73,0,9.22,PE,1616421751
95,Arrondissement de Niort,46.3333,-0.3333,53.01,52,10,7.0,FR,1616421751
96,Port-Cartier,50.0334,-66.8654,39.99,60,75,8.05,CA,1616421751
97,Jamestown,42.097,-79.2353,48.0,36,1,9.42,US,1616421476
98,Taltal,-25.4,-70.4833,70.45,68,0,3.4,CL,1616421672
99,Narsaq,60.9167,-46.05,23.0,50,75,4.61,GL,1616421752
100,Ponta do Sol,32.6667,-17.1,64.4,52,40,14.97,PT,1616421752
101,Bambous Virieux,-20.3428,57.7575,82.99,78,75,11.5,MU,1616421753
102,Vardø,70.3705,31.1107,28.4,69,40,20.71,NO,1616421753
103,Plettenberg Bay,-34.0527,23.3716,67.28,68,0,14.61,ZA,1616421753
104,Auki,-8.7676,160.7034,77.5,85,59,2.59,SB,1616421677
105,Hūn,29.1268,15.9477,82.98,15,0,22.66,LY,1616421754
106,Klyuchi,52.2667,79.1667,29.21,90,85,7.47,RU,1616421754
107,Guerrero Negro,27.9769,-114.0611,53.55,75,0,11.68,MX,1616421754
108,Derzhavīnsk,51.1,66.3167,16.93,96,58,6.67,KZ,1616421755
109,Castro,-24.7911,-50.0119,77.92,67,25,4.05,BR,1616421755
110,Acapulco de Juárez,16.8634,-99.8901,78.8,73,20,2.3,MX,1616421756
111,Saskylakh,71.9167,114.0833,-28.93,96,0,5.66,RU,1616421756
112,Cabo San Lucas,22.8909,-109.9124,66.99,37,40,2.3,MX,1616421551
113,Sinnamary,5.3833,-52.95,78.01,90,100,16.46,GF,1616421756
114,Saint Paul Harbor,57.79,-152.4072,28.4,86,75,4.61,US,1616421660
115,Mildura,-34.2,142.15,68.0,83,90,9.22,AU,1616421612
116,Mahébourg,-20.4081,57.7,82.4,78,75,11.5,MU,1616421698
117,Palmer,42.1584,-72.3287,52.0,52,20,3.53,US,1616421757
118,Taoudenni,22.6783,-3.9836,81.19,10,0,15.86,ML,1616421757
119,Severo-Kuril'sk,50.6789,156.125,35.55,84,100,24.58,RU,1616421719
120,De Aar,-30.6497,24.0123,80.82,18,0,7.96,ZA,1616421758
121,Solnechnyy,50.7214,136.6319,19.4,88,55,4.47,RU,1616421758
122,Cabo Rojo,18.0866,-67.1457,82.99,66,0,5.99,PR,1616421759
123,Dehlorān,32.6941,47.2679,80.85,18,16,8.16,IR,1616421759
124,Lastoursville,-0.8143,12.7287,78.82,92,83,1.1,GA,1616421759
125,Tikrit,34.6071,43.6782,79.23,21,100,13.8,IQ,1616421760
126,San Patricio,28.017,-97.5169,68.0,82,20,16.11,US,1616421736
127,Flinders,-34.5833,150.8552,66.99,96,100,4.0,AU,1616421760
128,Sungai Penuh,-2.0833,101.3833,66.51,97,100,1.39,ID,1616421761
129,Broome,42.2506,-75.833,48.99,34,1,3.44,US,1616421761
130,Haines Junction,60.7522,-137.5108,8.6,66,74,5.75,CA,1616421761
131,Kahului,20.8947,-156.47,68.0,88,20,14.09,US,1616421762
132,Erenhot,43.6475,111.9767,42.82,18,0,16.13,CN,1616421762
133,Baykit,61.67,96.37,13.69,96,100,2.37,RU,1616421762
134,Thompson,55.7435,-97.8558,3.2,72,20,9.22,CA,1616421763
135,Santiago,-33.4569,-70.6483,72.0,55,0,4.61,CL,1616421685
136,Pangnirtung,66.1451,-65.7125,-16.6,63,1,2.46,CA,1616421764
137,Paamiut,61.994,-49.6678,18.72,61,83,1.68,GL,1616421764
138,Barkhera Kalān,28.45,79.8,81.88,18,3,8.41,IN,1616421764
139,Chokurdakh,70.6333,147.9167,-16.13,75,90,2.46,RU,1616421702
140,Aguadilla,18.4275,-67.1541,81.0,54,1,5.75,PR,1616421748
141,Saint-Philippe,-21.3585,55.7679,86.0,62,20,3.44,RE,1616421733
142,Mayo,38.8876,-76.5119,51.01,66,1,6.91,US,1616421765
143,Rincon,32.296,-81.2354,60.8,63,20,13.8,US,1616421738
144,Esna,25.2934,32.554,107.6,9,0,5.75,EG,1616421766
145,Vanimo,-2.6741,141.3028,80.02,83,99,2.95,PG,1616421766
146,Vaini,-21.2,-175.2,75.2,83,20,10.36,TO,1616421766
147,Muros,42.7762,-9.0603,66.99,68,0,8.01,ES,1616421767
148,São Félix do Xingu,-6.6447,-51.995,79.39,91,29,4.38,BR,1616421767
149,Cape Coast,5.1053,-1.2466,84.58,73,100,18.21,GH,1616421767
150,Meulaboh,4.1363,96.1285,79.65,82,100,1.5,ID,1616421768
151,Cherskiy,68.75,161.3,-8.09,55,8,6.26,RU,1616421768
152,Xuzhou,34.1805,117.1571,48.16,55,0,7.92,CN,1616421768
153,Bealanana,-14.55,48.7333,68.36,97,100,0.94,MG,1616421769
154,Divnogorsk,55.9594,92.3619,32.0,74,40,6.71,RU,1616421769
155,Arlit,18.7369,7.3853,100.0,8,2,10.78,NE,1616421769
156,Viedma,-40.8135,-62.9967,71.28,33,0,12.53,AR,1616421770
157,Vuktyl,63.8567,57.3094,23.59,94,100,9.35,RU,1616421770
158,Spearfish,44.4908,-103.8594,37.0,60,1,4.61,US,1616421771
159,Batabanó,22.7164,-82.2881,71.6,64,20,2.3,CU,1616421771
160,Myanaung,18.2833,95.3167,86.04,26,0,6.26,MM,1616421771
161,Touros,-5.1989,-35.4608,77.0,88,75,11.5,BR,1616421772
162,San Cristobal,7.7669,-72.225,75.2,100,40,3.44,VE,1616421772
163,Liverpool,53.4106,-2.9779,53.6,62,75,10.36,GB,1616421763
164,Nanortalik,60.1432,-45.2371,23.68,65,0,20.87,GL,1616421773
165,Esperance,-33.8667,121.9,62.6,88,90,14.97,AU,1616421773
166,Los Aquijes,-14.0967,-75.6908,69.8,73,0,9.22,PE,1616421773
167,Kirakira,-10.4544,161.9205,79.59,82,100,3.98,SB,1616421773
168,Adrar,20.5022,-10.0711,86.56,9,0,6.22,MR,1616421774
169,San Quintín,30.4833,-115.95,51.76,75,100,7.9,MX,1616421774
170,Poum,-20.2333,164.0167,78.91,74,26,16.98,NC,1616421671
171,Krasnyy Yar,46.5331,48.3456,48.2,40,0,6.71,RU,1616421775
172,Bathsheba,13.2167,-59.5167,82.4,57,20,20.71,BB,1616421775
173,Lingao,19.9103,109.6859,65.57,67,100,12.53,CN,1616421775
174,Salta,-24.7859,-65.4117,60.8,88,90,3.44,AR,1616421776
175,Bengkulu,-3.8004,102.2655,77.36,87,100,5.26,ID,1616421776
176,Portree,57.4129,-6.1942,46.99,92,100,15.01,GB,1616421776
177,Kupang,-10.1667,123.5833,79.52,82,42,1.68,ID,1616421777
178,Bandarbeyla,9.4942,50.8122,81.39,55,66,11.54,SO,1616421777
179,Jiuquan,39.7432,98.5174,48.92,12,0,7.92,CN,1616421777
180,Kampene,-3.6,26.6667,78.13,90,100,2.13,CD,1616421551
181,Batemans Bay,-35.7167,150.1833,64.0,96,100,8.05,AU,1616421675
182,Alice Springs,-23.7,133.8833,69.8,94,90,6.91,AU,1616421778
183,Lüshunkou,38.8,121.2667,48.2,37,0,6.71,CN,1616421778
184,Luwuk,-0.9516,122.7875,79.63,88,99,0.74,ID,1616421778
185,Geraldton,-28.7667,114.6,71.6,73,90,21.85,AU,1616421746
186,Hasaki,35.7333,140.8333,43.0,93,75,9.22,JP,1616421750
187,Avenal,36.0041,-120.129,43.0,81,20,3.44,US,1616421779
188,Kumul,42.8,93.45,51.12,17,100,7.4,CN,1616421745
189,Coquimbo,-29.9533,-71.3436,64.4,48,0,5.75,CL,1616421722
190,Çumra,37.5732,32.7745,68.0,32,20,21.85,TR,1616421779
191,Shubarkuduk,49.1447,56.4872,21.94,92,8,2.3,KZ,1616421780
192,Brattvåg,62.6002,6.4434,44.6,93,75,21.85,NO,1616421780
193,Mackay,-21.15,149.2,77.0,94,75,2.3,AU,1616421780
194,Erzin,36.9559,36.2,75.0,47,3,2.75,TR,1616421781
195,Dikson,73.5069,80.5464,-8.36,71,100,1.5,RU,1616421781
196,Redlands,34.0556,-117.1825,44.6,65,1,1.41,US,1616421554
197,Salalah,17.0151,54.0924,86.0,51,0,6.91,OM,1616421781
198,Mae Hong Son,19.3003,97.9685,83.53,49,52,4.25,TH,1616421731
199,Longyearbyen,78.2186,15.6401,15.8,67,75,5.75,SJ,1616421782
200,Tehri,30.3833,78.4833,68.36,45,95,5.61,IN,1616421782
201,Hanzhong,33.0728,107.0303,52.45,58,2,4.45,CN,1616421783
202,São Raimundo das Mangabeiras,-7.0219,-45.4811,81.41,68,55,5.93,BR,1616421783
203,Erie,42.7667,-78.6664,55.99,34,0,4.0,US,1616421783
204,Asău,46.4333,26.4,41.0,33,100,6.35,RO,1616421784
205,Dali,25.7,100.1833,57.94,53,9,5.41,CN,1616421784
206,Westport,41.1415,-73.3579,46.99,81,1,5.75,US,1616421784
207,Champerico,14.3,-91.9167,68.0,94,0,2.68,GT,1616421785
208,Gorom-Gorom,14.4439,-0.2361,104.65,7,6,12.17,BF,1616421785
209,Riyadh,24.6877,46.7219,95.0,7,0,10.36,SA,1616421785
210,Kailua,21.4022,-157.7394,71.6,68,90,10.36,US,1616421569
211,Nārsingi,18.0333,78.4333,84.2,48,75,5.75,IN,1616421786
212,Vanavara,60.34,102.2797,4.32,96,100,4.74,RU,1616421786
213,College,64.8569,-147.8028,1.4,70,1,3.44,US,1616421787
214,Port Macquarie,-31.4333,152.9167,66.2,100,75,3.44,AU,1616421787
215,Fort Morgan,40.2503,-103.8,33.8,80,90,9.22,US,1616421787
216,Namatanai,-3.6667,152.4333,80.1,79,41,6.85,PG,1616421788
217,Walvis Bay,-22.9575,14.5053,69.8,68,0,9.22,NA,1616421717
218,Karsun,54.1994,46.9827,29.84,92,100,11.3,RU,1616421788
219,Monrovia,6.3005,-10.7969,84.2,74,75,5.75,LR,1616421747
220,Warrnambool,-38.3833,142.4833,64.99,91,56,5.01,AU,1616421789
221,Bima,-8.4667,118.7167,77.63,92,100,0.74,ID,1616421789
222,Sumenep,-7.0167,113.8667,80.31,84,84,7.09,ID,1616421789
223,Bosaso,11.2842,49.1816,82.4,74,0,13.8,SO,1616421790
224,Yar-Sale,66.8333,70.8333,-5.96,92,10,4.56,RU,1616421790
225,Tessalit,20.1986,1.0114,87.75,10,0,15.9,ML,1616421790
226,Leningradskiy,69.3833,178.4167,-16.76,93,62,6.8,RU,1616421791
227,Morón,-34.6534,-58.6198,73.99,65,40,4.0,AR,1616421500
228,Mossamedes,-15.1961,12.1522,80.6,65,75,20.71,AO,1616421791
229,San Juan,-31.5375,-68.5364,68.94,38,79,14.74,AR,1616421792
230,Sitka,57.0531,-135.33,35.6,93,90,4.61,US,1616421731
231,Port Lincoln,-34.7333,135.8667,67.48,76,0,4.12,AU,1616421792
232,Dwārka,22.2394,68.9678,78.57,79,0,12.88,IN,1616421792
233,Constitución,-35.3333,-72.4167,65.88,54,0,2.55,CL,1616421793
234,Sur,22.5667,59.5289,77.74,64,0,7.74,OM,1616421655
235,Laguna,38.421,-121.4238,46.0,87,1,4.61,US,1616421793
236,Samarai,-10.6167,150.6667,82.29,83,100,14.09,PG,1616421794
237,Devils Lake,48.1128,-98.8651,27.0,80,40,2.48,US,1616421794
238,Kloulklubed,7.0419,134.2556,78.8,89,90,8.05,PW,1616421795
239,Tasiilaq,65.6145,-37.6368,21.2,73,20,20.71,GL,1616421795
240,High Level,58.5169,-117.136,-2.2,84,20,10.36,CA,1616421795
241,Macomer,40.262,8.7699,57.2,41,20,14.97,IT,1616421796
242,Nadym,65.5333,72.5167,1.71,97,73,5.21,RU,1616421796
243,Troitskoye,52.9821,84.6757,35.01,98,100,12.8,RU,1616421796
244,Qaanaaq,77.484,-69.3632,-9.74,98,99,1.25,GL,1616421797
245,Padang,-0.9492,100.3543,75.2,100,75,3.44,ID,1616421797
246,Fukuechō,32.6881,128.8419,52.7,51,0,21.65,JP,1616421797
247,Poroshkovo,48.6683,22.7533,44.6,31,64,13.42,UA,1616421798
248,Orissaare,58.5592,23.0826,39.0,81,75,4.61,EE,1616421798
249,Peace River,56.2501,-117.286,17.6,86,90,20.71,CA,1616421771
250,Yellowknife,62.456,-114.3525,-22.0,69,20,6.91,CA,1616421603
251,Iranshahr,27.2025,60.6848,86.0,7,0,13.8,IR,1616421799
252,Oistins,13.0667,-59.5333,82.4,57,40,25.32,BB,1616421795
253,Pochutla,15.7432,-96.4661,75.2,69,20,1.7,MX,1616421799
254,Lorengau,-2.0226,147.2712,83.26,75,98,4.14,PG,1616421799
255,Aklavik,68.2191,-135.0107,-11.2,77,0,8.05,CA,1616421800
256,Ossora,59.2353,163.0719,29.08,96,100,28.3,RU,1616421800
257,Luján,-34.5703,-59.105,73.0,73,15,1.99,AR,1616421800
258,Carmelo,-33.9892,-58.2856,71.6,68,20,13.8,UY,1616421801
259,Sovetskiy,61.3614,63.5842,19.53,91,57,6.58,RU,1616421801
260,Burnie,-41.0667,145.9167,60.01,82,100,13.0,AU,1616421801
261,Codrington,-38.2667,141.9667,62.1,89,0,7.54,AU,1616421723
262,Yarmouth,41.7057,-70.2286,48.2,66,1,5.75,US,1616421802
263,Seoul,37.5683,126.9778,42.8,75,0,2.3,KR,1616421802
264,Taiobeiras,-15.8078,-42.2331,74.64,68,87,6.35,BR,1616421802
265,Tashla,51.7716,52.7427,27.21,93,71,7.05,RU,1616421803
266,Soe,-9.8607,124.284,68.22,95,77,2.73,ID,1616421803
267,Togur,58.3631,82.8265,26.83,93,100,4.0,RU,1616421803
268,Kaeo,-35.1,173.7833,60.01,85,30,5.01,NZ,1616421804
269,Emba,48.8264,58.1442,21.52,88,0,5.48,KZ,1616421804
270,Gazojak,41.1875,61.4036,61.36,41,100,18.66,TM,1616421804
271,Mareeba,-17.0,145.4333,75.2,88,100,2.3,AU,1616421805
272,Batagay-Alyta,67.8006,130.4114,-10.98,99,100,3.62,RU,1616421805
273,Skibbereen,51.55,-9.2667,48.2,87,75,10.36,IE,1616421805
274,Husavik,66.0449,-17.3389,39.2,41,75,23.02,IS,1616421805
275,Itarema,-2.9248,-39.9167,85.39,63,86,10.71,BR,1616421806
276,Jalu,29.0331,21.5482,101.48,8,100,39.01,LY,1616421806
277,Havelock,34.8791,-76.9013,60.01,82,90,16.11,US,1616421544
278,Koupéla,12.1794,-0.3517,106.2,10,6,8.59,BF,1616421807
279,Tagusao,9.1924,117.8141,81.7,79,100,8.03,PH,1616421807
280,Wagar,16.1525,36.2032,106.79,6,0,10.04,SD,1616421807
281,Neuquén,-38.9516,-68.0591,69.8,46,0,3.44,AR,1616421808
282,Sammamish,47.6418,-122.0804,42.01,93,94,3.49,US,1616421660
283,Bilma,18.6853,12.9164,103.6,7,0,7.14,NE,1616421808
284,Harper,4.375,-7.7169,84.34,69,100,10.89,LR,1616421667
285,Dingle,10.9995,122.6711,78.13,85,61,9.46,PH,1616421808
286,Lagos,6.5833,3.75,91.4,62,75,9.22,NG,1616421601
287,Rio Grande,-32.035,-52.0986,78.8,65,40,9.22,BR,1616421809
288,Lerwick,60.1545,-1.1494,46.4,93,75,24.16,GB,1616421809
289,Río Gallegos,-51.6226,-69.2181,57.2,47,0,5.75,AR,1616421810
290,Oxapampa,-10.5775,-75.4017,65.19,81,97,0.92,PE,1616421810
291,Turki,51.987,43.2731,32.88,89,100,8.68,RU,1616421810
292,Villa Luvianos,18.9167,-100.4,65.66,42,0,1.05,MX,1616421811
293,Laas,46.6166,10.7002,57.2,56,40,13.8,IT,1616421811
294,Matagami,49.7502,-77.6328,42.8,42,1,12.66,CA,1616421811
295,Bundaberg,-24.85,152.35,78.01,83,40,8.05,AU,1616421812
296,Forsytheganj,52.6333,29.7333,36.03,52,99,11.1,BY,1616421812
297,Podosinovets,60.2776,47.0659,31.87,87,100,9.8,RU,1616421813
298,Boguchany,58.3814,97.4531,24.94,92,21,6.38,RU,1616421813
299,Ulladulla,-35.35,150.4667,63.0,100,90,12.48,AU,1616421813
300,Kâhta,37.7855,38.6237,57.2,72,75,9.22,TR,1616421814
301,Ribeira Grande,38.5167,-28.7,62.6,77,40,11.5,PT,1616421814
302,Khokhlovo,59.1492,37.3998,30.2,69,75,6.71,RU,1616421814
303,Pontianak,-0.0333,109.3333,77.0,94,75,4.18,ID,1616421815
304,Rock Island,41.45,-90.5168,55.4,44,75,10.36,US,1616421815
305,Khovd,48.0056,91.6419,34.92,39,0,6.08,MN,1616421659
306,Hofn,64.2539,-15.2082,39.2,87,40,26.46,IS,1616421816
307,Tazovsky,67.4667,78.7,0.1,96,73,4.79,RU,1616421816
308,Ayagoz,47.9714,80.4392,32.72,98,100,5.32,KZ,1616421816
309,Mumford,5.2618,-0.759,83.35,76,99,18.9,GH,1616421816
310,Mehamn,71.0357,27.8492,28.4,86,75,17.27,NO,1616421817
311,Nome,64.5011,-165.4064,1.4,78,20,23.02,US,1616421657
312,Bukama,-9.2,25.85,84.27,72,100,0.56,CD,1616421817
313,Vung Tau,10.346,107.0843,82.47,70,44,26.15,VN,1616421818
314,Kiunga,-6.1219,141.2906,75.76,94,92,1.19,PG,1616421818
315,Bonaventure,48.0457,-65.4926,44.6,33,0,14.97,CA,1616421818
316,Huanren,41.2647,125.3667,34.74,64,32,5.35,CN,1616421819
317,Beibei,29.8256,106.4339,53.01,76,0,4.47,CN,1616421819
318,Gizo Government Station,-8.103,156.8419,82.99,73,100,5.17,SB,1616421819
319,Marsh Harbour,26.5412,-77.0636,73.18,69,96,11.32,BS,1616421820
320,Mount Isa,-20.7333,139.5,80.6,69,40,10.09,AU,1616421657
321,Puerto Baquerizo Moreno,-0.9,-89.6,80.6,89,75,3.44,EC,1616421820
322,Krasnoarmeyskoye,52.7182,50.0322,28.29,91,5,11.14,RU,1616421820
323,Amalāpuram,16.5833,82.0167,89.6,48,20,4.61,IN,1616421821
324,Conde,-7.2597,-34.9075,80.6,89,40,4.61,BR,1616421656
325,Zemio,5.0314,25.1361,91.09,42,80,5.55,CF,1616421821
326,Northam,51.0333,-4.2167,54.0,83,86,3.0,GB,1616421665
327,Ha Tinh,18.3333,105.9,61.05,74,100,5.73,VN,1616421634
328,Ariquemes,-9.9133,-63.0408,72.86,96,98,1.97,BR,1616421822
329,Port Hedland,-20.3167,118.5667,77.0,88,2,8.05,AU,1616421823
330,Yukhnov,54.7444,35.2297,32.9,77,100,6.2,RU,1616421823
331,Saint George,37.1041,-113.5841,37.99,60,1,5.75,US,1616421604
332,Rantauprapat,2.1,99.8333,75.34,94,30,3.04,ID,1616421824
333,Kangaatsiaq,68.3065,-53.4641,5.83,92,100,8.84,GL,1616421825
334,Lebu,-37.6167,-73.65,60.48,73,0,6.85,CL,1616421668
335,Rocha,-34.4833,-54.3333,70.61,73,44,9.19,UY,1616421659
336,Nogliki,51.8333,143.1667,21.18,80,100,25.68,RU,1616421826
337,Qasigiannguit,68.8193,-51.1922,6.8,85,90,11.5,GL,1616421818
338,Moussoro,13.6408,16.4901,107.6,6,71,3.24,TD,1616421624
339,Mitsamiouli,-11.3847,43.2844,84.04,66,19,2.06,KM,1616421827
340,Palafrugell,41.9174,3.1631,64.99,20,100,16.51,ES,1616421795
341,Kuna,43.4918,-116.4201,37.99,100,75,10.36,US,1616421808
342,Erbil,36.1926,44.0106,73.4,28,75,2.3,IQ,1616421827
343,Rawson,-43.3002,-65.1023,76.98,25,0,16.33,AR,1616421546
344,Camaçari,-12.6975,-38.3242,77.0,83,75,3.44,BR,1616421546
345,Bosobolo,4.1833,19.9,90.03,49,41,5.82,CD,1616421828
346,Rundu,-17.9333,19.7667,84.99,44,83,7.52,NA,1616421828
347,Fairbanks,64.8378,-147.7164,1.4,66,1,1.14,US,1616421600
348,Bom Jesus,-9.0744,-44.3586,84.06,57,83,5.44,BR,1616421829
349,Goderich,43.7501,-81.7165,48.2,31,99,10.36,CA,1616421829
350,Te Anau,-45.4167,167.7167,52.45,94,11,0.56,NZ,1616421829
351,Supaul,26.1167,86.6,83.43,12,7,6.26,IN,1616421830
352,Ancud,-41.8697,-73.8203,61.0,67,20,4.61,CL,1616421830
353,Atambua,-9.1061,124.8925,75.9,83,60,1.79,ID,1616421830
354,Kamenka,51.3223,42.7678,37.99,67,100,7.09,RU,1616421831
355,Ngaoundéré,7.3167,13.5833,82.83,51,92,5.28,CM,1616421831
356,Luau,-10.7073,22.2247,76.1,80,98,4.21,AO,1616421831
357,Kano,12.0001,8.5167,102.2,12,0,10.36,NG,1616421832
358,Scurtu Mare,44.35,25.2667,39.99,82,100,5.75,RO,1616421832
359,Dickinson,29.4608,-95.0513,64.99,77,20,5.75,US,1616421780
360,Deer Lake,49.1667,-57.4316,42.8,52,75,17.27,CA,1616421832
361,Tricase,39.9304,18.3553,51.8,71,40,13.8,IT,1616421833
362,Salamanca,40.8333,-6.0,55.99,16,23,1.01,ES,1616421833
363,Bonito,-21.1211,-56.4819,80.94,84,95,3.04,BR,1616421834
364,Ingham,42.6,-84.3833,55.4,47,1,5.75,US,1616421834
365,Hobyo,5.3505,48.5268,81.81,66,0,16.82,SO,1616421834
366,Formosa,-26.1775,-58.1781,75.2,83,75,2.3,AR,1616421835
367,Lagoa,39.05,-27.9833,59.22,82,18,14.05,PT,1616421729
368,Yeppoon,-23.1333,150.7333,77.0,83,40,9.75,AU,1616421835
369,La Providencia,28.7167,-111.5833,52.0,62,0,7.72,MX,1616421835
370,Trairi,-3.2778,-39.2689,85.68,64,6,8.97,BR,1616421755
371,Magog,45.2668,-72.1491,32.0,74,0,2.3,CA,1616421836
372,Tura,25.5198,90.2201,76.06,20,0,2.21,IN,1616421836
373,Tomaszów Lubelski,50.4477,23.4162,39.99,53,73,10.36,PL,1616421836
374,Lüderitz,-26.6481,15.1594,70.29,64,9,5.84,NA,1616421837
375,Bereda,43.2686,-7.5406,64.0,54,0,11.01,ES,1616421837
376,Kirovsk,48.6375,38.6428,41.32,46,100,5.44,UA,1616421837
377,Kayes,14.0,-11.0,104.11,10,100,7.38,ML,1616421838
378,Matamoros,25.5333,-103.25,62.6,39,75,2.73,MX,1616421838
379,Lompoc,34.6391,-120.4579,46.4,93,1,8.72,US,1616421785
380,Belgrade,44.804,20.4651,37.0,93,75,6.91,RS,1616421741
381,Deputatsky,69.3,139.9,-15.63,99,100,1.12,RU,1616421838
382,Imbituba,-28.24,-48.6703,78.8,78,75,10.36,BR,1616421721
383,Brae,60.3964,-1.353,46.4,93,75,24.16,GB,1616421839
384,Bara,10.3744,10.7288,107.6,21,0,10.36,NG,1616421839
385,Talcahuano,-36.7167,-73.1167,62.6,77,40,2.3,CL,1616421840
386,Beidao,34.5686,105.8933,39.0,49,0,5.01,CN,1616421840
387,Halifax,44.6453,-63.5724,51.01,49,1,6.91,CA,1616421824
388,Svetlaya,46.5389,138.3297,26.53,75,0,6.42,RU,1616421840
389,Timrå,62.487,17.3257,44.01,75,90,3.44,SE,1616421841
390,Muniz Freire,-20.4642,-41.4131,82.65,63,15,1.99,BR,1616421841
391,Thinadhoo,0.5333,72.9333,84.0,70,13,8.75,MV,1616421841
392,Pacific Grove,36.6177,-121.9166,50.0,83,57,7.96,US,1616421678
393,Nuuk,64.1835,-51.7216,19.4,73,90,9.22,GL,1616421709
394,Turochak,52.2576,87.1224,33.8,99,100,1.39,RU,1616421842
395,Pemba,-12.974,40.5178,86.0,70,75,10.36,MZ,1616421842
396,Kérouané,9.2667,-9.0167,79.95,65,100,2.01,GN,1616421843
397,Winslow,35.0242,-110.6974,34.0,40,1,19.57,US,1616421843
398,Rudnya,54.947,31.0934,32.0,47,75,11.18,RU,1616421843
399,Alice Town,25.7167,-79.3,66.97,71,99,12.03,BS,1616421843
400,Sandakan,5.8402,118.1179,80.6,94,20,1.14,MY,1616421844
401,Krasnosel'kup,65.7,82.4667,3.6,94,99,13.04,RU,1616421844
402,Nouakchott,18.0858,-15.9785,86.0,26,0,3.44,MR,1616421788
403,Aketi,2.7388,23.7833,81.9,61,99,3.58,CD,1616421845
404,San Fernando del Valle de Catamarca,-28.4696,-65.7852,70.0,79,5,4.0,AR,1616421751
405,Chapais,49.7834,-74.8492,41.0,42,1,14.97,CA,1616421763
406,Tortolì,39.9256,9.6572,50.0,53,75,33.38,IT,1616421845
407,Yatou,37.15,122.3833,43.86,52,0,8.48,CN,1616421846
408,Antonina,-25.4286,-48.7119,71.6,88,75,6.91,BR,1616421602
409,Labuhan,-6.8844,112.2051,80.65,84,96,9.66,ID,1616421699
410,Ontario,34.0633,-117.6509,46.4,65,1,3.44,US,1616421757
411,Grindavik,63.8424,-22.4338,35.6,75,75,34.52,IS,1616421713
412,Hamilton,39.1834,-84.5333,55.99,54,75,11.5,US,1616421754
413,Ostrovnoy,68.0531,39.5131,25.81,83,88,14.36,RU,1616421847
414,Christchurch,-43.5333,172.6333,52.0,100,90,1.14,NZ,1616421651
415,Itoman,26.1247,127.6694,60.8,55,40,18.41,JP,1616421847
416,Margate,51.3813,1.3862,54.0,67,53,3.69,GB,1616421847
417,Rosetta,31.4044,30.4164,77.0,33,75,6.91,EG,1616421848
418,Nikel,69.4128,30.222,26.6,63,0,10.36,RU,1616421848
419,Ginda,30.6945,78.4932,54.57,61,95,5.91,IN,1616421848
420,Srednekolymsk,67.45,153.6833,-4.97,83,0,3.96,RU,1616421849
421,Sørland,67.667,12.6934,42.8,93,75,18.41,NO,1616421849
422,Klaksvík,62.2266,-6.589,46.4,87,75,13.8,FO,1616421849
423,Yulara,-25.2406,130.9889,71.6,88,90,5.75,AU,1616421850
424,Kudahuvadhoo,2.6708,72.8944,83.55,69,20,6.93,MV,1616421850
425,Tombouctou,20.0,-3.0,86.34,13,44,14.18,ML,1616421850
426,Marrakesh,31.6315,-8.0083,71.6,33,20,4.61,MA,1616421787
427,Port Moresby,-9.4431,147.1797,77.0,100,75,3.44,PG,1616421851
428,Farsund,58.0948,6.8047,45.0,92,87,20.31,NO,1616421851
429,Sorong,-0.8833,131.25,83.05,76,100,9.19,ID,1616421851
430,Carballo,43.213,-8.691,60.8,51,0,6.91,ES,1616421852
431,Port Said,31.2565,32.2841,75.2,46,0,2.3,EG,1616421852
432,São Mateus do Maranhão,-4.0417,-44.475,79.16,81,97,3.85,BR,1616421852
433,Puerto Ayacucho,5.6639,-67.6236,86.22,60,70,2.73,VE,1616421852
434,Buritis,-15.6178,-46.4233,77.18,75,100,6.67,BR,1616421853
435,Altay,47.8667,88.1167,29.62,63,0,4.0,CN,1616421853
436,Irbeyskoye,55.6428,95.4522,27.16,90,81,5.5,RU,1616421854
437,Talaya,61.3833,152.75,9.95,94,100,5.32,RU,1616421854
438,Darhan,49.4867,105.9228,30.99,75,100,0.51,MN,1616421849
439,Tarakan,3.3,117.6333,82.98,75,75,6.6,ID,1616421855
440,Tranås,58.0372,14.9782,50.0,46,0,17.27,SE,1616421855
441,Chaman,30.9236,66.4512,62.37,33,100,1.97,PK,1616421855
442,Cayenne,4.9333,-52.3333,79.0,94,75,10.36,GF,1616421607
443,Sibolga,1.7427,98.7792,79.05,88,94,2.62,ID,1616421856
444,Maltahöhe,-24.8333,16.9833,81.19,39,99,11.95,NA,1616421856
445,Bend,44.0582,-121.3153,37.4,65,40,12.66,US,1616421309
446,Pyaozerskiy,65.8333,31.1667,25.86,80,0,8.19,RU,1616421857
447,Izumo,35.3667,132.7667,39.2,93,20,4.61,JP,1616421857
448,Macomb,40.4592,-90.6718,51.01,62,1,8.05,US,1616421763
449,Faya,18.3851,42.4509,80.6,40,20,13.8,SA,1616421857
450,Sioux Lookout,50.1001,-91.917,30.2,86,75,10.36,CA,1616421858
451,El Sauzal de Rodríguez,31.9,-116.6833,49.21,73,0,3.15,MX,1616421856
452,Colares,38.7992,-9.4469,64.4,55,0,10.36,PT,1616421858
453,Cidreira,-30.1811,-50.2056,74.39,77,100,10.87,BR,1616421859
454,Byron Bay,-28.65,153.6167,69.8,88,75,19.57,AU,1616421859
455,Tabuk,17.4189,121.4443,71.46,94,100,6.02,PH,1616421859
456,Blahodatne,50.6637,24.2492,39.99,53,91,10.87,UA,1616421859
457,Chuāri Khās,32.4333,76.0167,63.16,51,100,11.25,IN,1616421860
458,Nabire,-3.3667,135.4833,75.22,93,100,6.31,ID,1616421860
459,Quijingue,-10.7525,-39.2092,86.41,47,75,7.36,BR,1616421860
460,Fort Saint James,54.4333,-124.25,24.49,89,100,2.3,CA,1616421861
461,Huadian,42.9633,126.7478,33.49,64,53,5.03,CN,1616421861
462,Portland,45.5234,-122.6762,44.01,91,100,3.0,US,1616421569
463,Antalaha,-14.9003,50.2788,82.31,78,86,3.15,MG,1616421861
464,Usinsk,65.9939,57.5281,21.56,94,100,11.12,RU,1616421862
465,Ugoofaaru,5.6667,73.0,84.4,72,59,10.74,MV,1616421862
466,Kawalu,-7.3817,108.2082,73.89,95,100,0.72,ID,1616421862
467,Shiyan,32.6475,110.7781,48.99,28,0,1.97,CN,1616421863
468,Tual,-5.6667,132.75,85.26,64,77,2.71,ID,1616421863
469,Talnakh,69.4865,88.3972,-1.07,97,100,7.45,RU,1616421863
470,Lakselv,70.0513,24.9718,30.2,51,0,14.97,NO,1616421864
471,Ust-Tsilma,65.441,52.1498,25.5,96,100,5.61,RU,1616421864
472,Opuwo,-18.0607,13.84,81.64,53,87,5.03,NA,1616421864
473,Maniitsoq,65.4167,-52.9,16.41,87,100,9.95,GL,1616421865
474,Tateyama,34.9833,139.8667,50.0,51,87,14.18,JP,1616421865
475,Andrews,32.3187,-102.5457,57.2,72,40,16.11,US,1616421865
476,Necochea,-38.5473,-58.7368,62.01,68,0,3.0,AR,1616421865
477,Port Hardy,50.6996,-127.4199,41.0,93,90,9.22,CA,1616421780
478,Seddon,-37.8068,144.8916,66.0,100,90,6.08,AU,1616421866
479,Atasū,48.6814,71.6433,28.15,97,100,2.95,KZ,1616421866
480,Mount Gambier,-37.8333,140.7667,64.4,88,90,4.61,AU,1616421866
481,Lubbock,33.6001,-101.8338,55.99,76,75,12.66,US,1616421622
482,Bang Krathum,16.5783,100.3003,91.99,58,32,6.91,TH,1616421867
483,Aksarka,66.5606,67.7975,1.35,99,81,4.47,RU,1616421867
484,Jaisalmer,26.9147,70.9181,76.1,44,100,17.78,IN,1616421868
485,Kutum,14.2,24.6667,96.6,8,0,9.33,SD,1616421868
486,Monastyryshche,48.9909,29.8047,40.01,62,100,9.35,UA,1616421868
487,Shelburne,44.0787,-80.2041,46.99,42,80,11.92,CA,1616421603
488,Uri,34.0833,74.0333,50.02,97,100,1.97,IN,1616421869
489,Djibouti,11.5,42.5,86.0,45,1,6.91,DJ,1616421869
490,Bintulu,3.1667,113.0333,78.8,94,40,3.44,MY,1616421820
491,Salinas,36.6777,-121.6555,51.8,76,90,8.05,US,1616421870
492,Marawi,7.9986,124.2928,78.01,87,92,4.0,PH,1616421870
493,Muswellbrook,-32.2667,150.9,64.99,88,100,7.0,AU,1616421870
494,Port-Gentil,-0.7193,8.7815,82.4,74,40,4.61,GA,1616421870
495,Edd,13.9297,41.6925,95.2,23,0,23.24,ER,1616421871
496,Micheweni,-4.9667,39.8333,86.85,61,3,9.91,TZ,1616421871
497,Dolores,-36.3132,-57.6792,65.57,67,0,4.52,AR,1616421871
498,Hambantota,6.1241,81.1185,82.4,94,75,4.61,LK,1616421872
499,Aquiraz,-3.9014,-38.3911,80.6,83,40,4.61,BR,1616421872
500,Srīvardhan,18.0333,73.0167,79.88,69,0,8.81,IN,1616421872
501,Imeni Poliny Osipenko,52.4201,136.4853,15.01,87,0,0.51,RU,1616421873
502,Nichinan,31.6,131.3667,41.0,65,0,8.01,JP,1616421873
503,Aktobe,50.2797,57.2072,26.6,80,40,4.47,KZ,1616421779
504,Nurota,40.5614,65.6886,64.4,42,8,6.91,UZ,1616421873
505,Campamento,14.55,-86.65,68.61,82,51,1.03,HN,1616421874
506,Mattru,7.6244,-11.8332,91.71,45,68,1.14,SL,1616421874
507,Nhamundá,-2.1861,-56.7131,85.08,68,98,3.27,BR,1616421874
508,Assiniboia,49.6334,-105.9845,30.2,43,100,8.05,CA,1616421875
509,Kaitangata,-46.2817,169.8464,52.18,95,92,2.06,NZ,1616421875
510,Russell,32.3502,-85.1999,59.0,55,1,10.36,US,1616421875
511,Helong,42.5397,128.9972,32.9,61,24,8.59,CN,1616421876
512,Boshkengash,38.4661,68.8053,62.6,42,100,8.95,TJ,1616421876
513,Anqiu,36.4342,119.1925,50.2,29,0,9.44,CN,1616421876
514,Palm Coast,29.585,-81.2078,64.99,94,90,17.27,US,1616421728
515,Saldanha,-33.0117,17.9442,89.6,22,0,13.8,ZA,1616421877
516,Baru,-7.0525,112.3901,82.4,78,40,8.05,ID,1616421877
517,Wau,7.7029,27.9953,99.63,27,100,4.97,SS,1616421877
518,Taku,39.0211,117.6469,57.2,21,0,11.18,CN,1616421878
519,Pine Bluff,34.2284,-92.0032,51.8,71,1,5.75,US,1616421878
520,Brisbane,-27.4679,153.0281,72.0,91,100,10.63,AU,1616421857
521,Alofi,-19.0595,-169.9187,77.0,100,100,9.22,NU,1616421878
522,Philadelphia,39.9523,-75.1638,51.8,66,1,8.05,US,1616421770
523,Souillac,-20.5167,57.5167,82.4,78,75,11.5,MU,1616421879
524,Beyneu,45.3167,55.2,44.47,48,99,6.24,KZ,1616421879
525,Belyy Yar,53.6039,91.3903,41.0,56,0,5.26,RU,1616421880
526,Penzance,50.1186,-5.5371,50.0,62,75,4.61,GB,1616421880
527,Hashtrūd,37.4779,47.0508,56.1,31,100,23.4,IR,1616421880
528,Santa Maria,-29.6842,-53.8069,71.6,94,90,10.36,BR,1616421881
529,Japura,-0.3167,102.35,75.13,93,100,2.57,ID,1616421881
530,Makat,47.6469,53.3463,40.06,63,80,5.41,KZ,1616421881
531,Kashipur,29.2167,78.95,78.67,26,10,8.37,IN,1616421881
532,Saint-François,46.4154,3.9054,50.0,61,90,13.8,FR,1616421882
533,Ahipara,-35.1667,173.1667,57.06,83,41,4.68,NZ,1616421882
534,Les Cayes,18.2,-73.75,79.27,71,6,3.56,HT,1616421882
535,Joshīmath,30.5667,79.5667,52.21,78,100,3.65,IN,1616421883
536,Smithers,54.7804,-127.1743,24.8,93,1,3.44,CA,1616421604
537,Esim,4.8699,-2.2405,84.81,70,30,14.0,GH,1616421883
538,Mangan,27.5167,88.5333,70.39,55,90,2.77,IN,1616421883
539,Pudozh,61.8099,36.5345,29.46,89,100,10.47,RU,1616421884
540,Wajid,3.8093,43.2471,96.75,19,6,14.92,SO,1616421884
541,Yalta,44.5,34.1667,41.0,71,100,14.07,UA,1616421751
542,Makakilo City,21.3469,-158.0858,71.6,64,1,5.75,US,1616421711
543,De-Kastri,51.4667,140.7833,21.45,78,73,17.58,RU,1616421885
544,Wanaka,-44.7,169.15,55.65,84,0,2.24,NZ,1616421885
545,Iralaya,15.0,-83.2333,75.2,94,40,5.75,HN,1616421885
546,Assaí,-23.3733,-50.8414,87.8,58,20,6.91,BR,1616421886
547,Khasan,42.4308,130.6434,35.49,66,0,6.26,RU,1616421886
548,Whitehorse,60.7161,-135.0538,8.01,92,75,2.3,CA,1616421785
549,Bavly,54.393,53.2602,26.91,90,100,12.41,RU,1616421886
550,Keetmanshoop,-26.5833,18.1333,84.2,37,31,4.61,NA,1616421887
551,Puerto Nariño,-3.7703,-70.3831,78.8,83,40,2.3,CO,1616421887
552,Kropotkin,45.4375,40.5756,43.0,46,93,10.07,RU,1616421743
553,Aksu,41.1231,80.2644,53.64,30,100,7.58,CN,1616421887
554,Dauriya,49.9333,116.8667,35.06,70,100,15.88,RU,1616421888
555,Korla,41.7597,86.1469,49.91,38,32,0.78,CN,1616421888
556,Coyotepec,19.775,-99.2072,59.0,47,1,3.44,MX,1616421888
557,Gort,53.0664,-8.8167,51.8,66,75,11.5,IE,1616421889
558,North Bend,43.4065,-124.2243,46.4,100,90,10.36,US,1616421867
559,Fort Nelson,58.8053,-122.7002,12.2,85,90,3.44,CA,1616421603
560,Koslan,63.4564,48.8989,29.41,97,100,4.25,RU,1616421889
561,Vangaindrano,-23.35,47.6,80.92,81,3,7.31,MG,1616421889
562,Coruripe,-10.1256,-36.1756,84.04,65,27,8.32,BR,1616421890
563,Los Llanos de Aridane,28.6585,-17.9182,62.6,67,75,11.5,ES,1616421890
564,Berlevåg,70.8578,29.0864,30.2,74,75,18.41,NO,1616421890
565,Mubi,10.2676,13.2644,102.65,14,77,5.95,NG,1616421891
566,Lipin Bor,60.2622,37.9763,28.87,89,100,11.3,RU,1616421891
567,Muisne,0.6,-80.0333,77.0,94,75,3.44,EC,1616421891
568,Wallasey,53.4232,-3.065,53.6,62,75,10.36,GB,1616421892
569,Mizdah,31.4451,12.9801,55.47,35,100,17.76,LY,1616421892
570,Alyangula,-13.8483,136.4192,83.12,76,48,7.65,AU,1616421893
571,Salamiyah,35.0113,37.0532,73.09,38,100,30.6,SY,1616421893
572,Sobolevo,54.4299,31.8996,30.45,77,32,9.31,RU,1616421893
573,Malatya Province,38.5,38.0,62.6,45,75,16.11,TR,1616421894
574,Nerchinskiy Zavod,51.3088,119.61,24.93,87,100,2.98,RU,1616421894
575,Zelenogorskiy,55.0333,87.0,33.8,69,40,4.47,RU,1616421894
576,Billings Metropolitan Area,45.7833,-108.5007,34.0,55,90,9.22,US,1616421513
577,Lūnāvāda,23.1333,73.6167,88.92,15,18,5.23,IN,1616421895
578,Springdale,36.1867,-94.1288,53.01,66,1,5.75,US,1616421839
579,Constantine,36.365,6.6147,46.4,81,75,18.41,DZ,1616421895
580,Novosergiyevka,52.0934,53.6528,27.12,92,95,9.78,RU,1616421896
581,Marystown,47.1666,-55.1483,38.86,84,95,20.49,CA,1616421896
582,Timizart,36.8,4.2667,49.42,82,92,8.03,DZ,1616421896
583,Cherdyn',60.403,56.4787,27.12,93,100,11.74,RU,1616421897
584,Ondjiva,-17.0667,15.7333,80.6,61,75,2.3,AO,1616421897
585,Huarmey,-10.0681,-78.1522,75.45,71,15,5.44,PE,1616421897
586,Safranbolu,41.2508,32.6942,63.14,56,67,8.03,TR,1616421897
587,Ranot,7.7777,100.3213,82.62,75,100,14.5,TH,1616421898
588,Matara,5.9485,80.5353,78.87,88,34,5.97,LK,1616421632
589,Mosquera,4.7059,-74.2302,55.4,71,75,6.91,CO,1616421674
590,Mezhdurechensk,53.6942,88.0603,33.85,99,100,3.4,RU,1616421898
591,Nelson Bay,-32.7167,152.15,66.2,100,90,6.91,AU,1616421899
592,Sibi,29.5448,67.8764,75.6,39,78,28.34,PK,1616421899
593,Sisimiut,66.9395,-53.6735,14.83,86,100,21.7,GL,1616421779
594,Beloha,-25.1667,45.05,79.29,75,74,7.72,MG,1616421899
595,São João da Barra,-21.6403,-41.0511,86.0,58,0,11.5,BR,1616421900
596,Sarangani,5.4033,125.4636,83.23,79,68,26.28,PH,1616421900
597,Correntina,-13.3433,-44.6367,80.4,55,100,8.86,BR,1616421900
598,Kidal,18.4411,1.4078,96.24,11,0,10.65,ML,1616421767
599,Xai-Xai,-25.0519,33.6442,78.17,74,57,14.41,MZ,1616421901
600,Paita,-5.0892,-81.1144,78.8,69,0,12.66,PE,1616421901
601,Mashhad,36.297,59.6062,62.6,45,75,4.61,IR,1616421903
